"Search Parameters"	"More Info"	"Doubtful Runup"	"Country"	"Area"	"Location Name"	"Latitude"	"Longitude"	"Distance From Source (km)"	"Initial Wave Arrival Dy"	"Initial Wave Arrival Hr"	"Initial Wave Arrival Min"	"Travel Hours"	"Travel Minutes"	"Max Wave Arrival Day"	"Max Wave Arrival Hr"	"Max Wave Arrival Min"	"Max Water Height (m)"	"Max Inundation Distance (m)"	"Measurement Type"	"Period"	"First Motion"	"Deaths"	"Death Description"	"Missing"	"Missing Description"	"Injuries"	"Injuries Description"	"Damage $Mil"	"Damage Description"	"Houses Destroyed"	"Houses Destroyed Description"	"Houses Damaged"	"Houses Damaged Description"
"Tsunami ID = 1902"																																	
		"n"	"PAPUA NEW GUINEA"		"LOMBRUM, ADMIRALTY ISLANDS"	-2.05	147.4	13905.17893799768									1.2		1														
		"n"	"USA"	"AK"	"UNALASKA, DUTCH HARBOR, AK"	53.883	-166.533	13505.001953515566	23	14	50	19	39				0.7		2	33	"R"												
		"n"	"USA"	"AK"	"JUNEAU, AK"	58.3	-134.42	12090.608868846382									0.05		2														
		"n"	"USA"	"AK"	"KAKE, AK"	56.97	-133.92	11966.928939083795	23	14	0	18	49						2														
		"n"	"USA"	"AK"	"KETCHIKAN, AK"	55.333	-131.633	11737.632833957501	23								0.05		2														
		"n"	"USA"	"AK"	"ATTU, MASSACRE BAY, AK"	52.83	173.2	14766.413071527375	23	15	30	20	19				1.68		2	45	"R"												
		"n"	"USA"	"AK"	"SEWARD, AK"	60.119	-149.427	12892.583771320655	23	14	40	19	29				0.7		2	48	"R"												
		"n"	"USA"	"AK"	"SITKA, AK"	57.052	-135.342	12036.014597189316	23	13	33	18	22				0.46		2	27	"R"												
		"n"	"USA"	"AK"	"SKAGWAY, AK"	59.44	-135.33	12215.322851365114	23	15	0	19	49				0.18		2	80	"R"												
		"n"	"USA"	"AK"	"ADAK, SWEEPER COVE, AK"	51.863	-176.632	14068.045633210299	23	14	40	19	29				1.1		2	50	"R"												
		"n"	"USA"	"AK"	"KODIAK ISLAND, WOMENS BAY, AK"	57.730313	-152.513871	12908.020426181092	23	14	25	19	14				0.7		2	70	"R"												
		"n"	"USA TERRITORY"	"AS"	"PAGO PAGO, AMERICAN SAMOA"	-14.2766	-170.689	9665.39792282556	23	7	33	12	22				0.8		2	18	"R"												
		"n"	"AUSTRALIA"		"BALLINA"	-28.87	153.58	11127.892088474564	23	12	5	16	54				0.18		2	38	"F"												
		"n"	"AUSTRALIA"		"BRISBANE (CAIRNCROSS)"	-27.36666	153.16666	11286.959416708416									0.11		2		"R"												
		"n"	"AUSTRALIA"		"CAIRNS"	-16.91666	145.78333	12671.261047332726	23	15	0	19	49				0.15		2	25	"F"												
		"n"	"AUSTRALIA"		"COFFS HARBOUR"	-30.3	153.15	11022.990667177197									0.5		2		"F"												
		"n"	"AUSTRALIA"		"EDEN (TWOFOLD BAY)"	-37.07366	149.907739	10568.230411331637	23	12	10	16	59				0.9		2	32	"R"												
		"n"	"AUSTRALIA"		"FREMANTLE"	-32.055833	115.73944	12175.223427836354									0.15		2		"R"												
		"n"	"AUSTRALIA"		"FORT DENISON, SYDNEY HARBOR"	-33.85	151.233	10801.298950879085									0.41		2		"F"												
		"n"	"AUSTRALIA"		"HOBART, TASMANIA"	-42.88	147.33	10136.234425511899	23	12	0	16	49				0.15		2	15	"R"												
		"n"	"AUSTRALIA"		"ILUKA"	-29.42	153.37	11090.208140164714	23	12	33	17	22				0.32		2	12	"R"												
		"n"	"AUSTRALIA"		"LORD HOWE I."	-31.517	159.067	10574.820942314049	23	10	45	15	34				0.7		2	22	"R"												
		"n"	"AUSTRALIA"		"NEWCASTLE"	-32.933	151.783	10857.00337522914	23	12	0	16	49				0.55		2		"F"												
		"n"	"AUSTRALIA"		"NORFOLK ISLAND"	-29.058333	167.953611	10216.036593353918	23	9	0	13	49				0.2		2	60	"R"												
		"n"	"AUSTRALIA"		"PT. MACDONNELL"	-38.07	140.7	10873.8461756564									0.12		2		"R"												
		"n"	"AUSTRALIA"		"TOWNSVILLE, QUEENSLAND"	-19.25	146.83333	12394.071212989675	23	16	5	20	54				0.15		2	80	"R"												
		"n"	"AUSTRALIA"		"URANGAN JETTY, QUEENSLAND"	-25.28	152.97	11486.240101974057									0.09		2		"R"												
		"n"	"USA"	"CA"	"ALAMEDA, CA"	37.77166	-122.29833	9786.768808479748	23	10	50	15	39				0.31		2	100	"R"												
		"n"	"USA"	"CA"	"ALAMITOS BAY, CA"	33.75	-118.12	9204.426506612484	23	9	34	14	23				0.61		2	36	"R"												
		"n"	"USA"	"CA"	"AVALON, CATALINA IS, CA"	33.345	-118.325	9177.907200731534									0.61		1														
		"n"	"USA"	"CA"	"AVILA BEACH, CA"	35.179	-120.735	9471.723908003323									0.99		1														
		"n"	"USA"	"CA"	"BERKELEY, CA"	37.87	-122.27	9794.059976042601											1														
		"n"	"USA"	"CA"	"BODEGA BAY, CA"	38.27	-123	9867.945242588705									0.3		2														
		"n"	"USA"	"CA"	"CAMBRIA, CA"	35.5	-121.12	9521.071781313438											1														
		"n"	"USA"	"CA"	"CAPITOLA, CA"	36.97	-121.95	9696.848525047068											1														
		"n"	"USA"	"CA"	"CRESCENT CITY, CA"	41.7456	-124.184	10236.128748786236	23	10	40	15	29				1.68		2	84	"R"					3	1	0.03	1				
		"n"	"USA"	"OR"	"DEPOE BAY, OR"	44.808	-124.063	10499.228230344157									0.9		1														
		"n"	"USA"	"CA"	"GUALALA RIVER, CA"	38.77	-123.48	9937.463807989781									0.61		1														
		"n"	"USA"	"CA"	"HUMBOLDT BAY, CA"	40.77	-124.22	10152.265366572636											1														
		"n"	"USA"	"CA"	"LA JOLLA, CA"	32.867	-117.257	9078.342381113906	23	8	50	13	39				0.52		2	21	"R"												
		"n"	"USA"	"CA"	"LONG BEACH, CA"	33.75	-118.22	9209.615331533998	23	9	27	14	16				0.88		2	40	"R"								1				
		"n"	"USA"	"CA"	"LOS ANGELES, CA"	33.719	-118.272	9209.470465996015	23	9	18	14	7				0.76		2	46	"R"												
		"n"	"USA"	"CA"	"MONTEREY, CA"	36.605	-121.888	9660.924250565624									1.1		1														
		"n"	"USA"	"CA"	"MORRO BAY, CA"	35.3377523	-120.8512	9492.199324364215											1			1	1										
		"n"	"USA"	"CA"	"MOSS LANDING, CA"	36.8	-121.78	9672.67309595791									0.8		1														
		"n"	"USA"	"CA"	"NOYO HARBOR, CA"	39.43	-123.8	10012.507977971632	23	15	11	20	0				1		1										1				
		"n"	"USA"	"CA"	"OCEANO, CA"	35.08	-120.6	9455.632890820161											1														
		"n"	"USA"	"CA"	"PACIFIC GROVE, CA"	36.618	-121.917	9663.62247985559									0.91		5														
		"n"	"USA"	"CA"	"PACIFICA, CA"	37.614	-122.487	9782.62783226413									1.2		1														
		"n"	"USA"	"CA"	"PISMO BEACH, CA"	35.13	-120.63	9461.736634839683									1.37		2										1				
		"n"	"USA"	"CA"	"PORT HUENEME, CA"	34.14	-119.19	9295.957622560501	23	9	15	14	4				1.34		2	20	"R"								1				
		"n"	"USA"	"CA"	"PRINCETON, HALF MOON BAY, CA"	37.5049409	-122.4869222	9772.909819869725									2.2		1										1				
		"n"	"USA"	"CA"	"SAN DIEGO, CA"	32.715	-117.174	9059.995175271464	23	9	12	14	1				0.7		2	57	"R"												
		"n"	"USA"	"CA"	"SAN FRANCISCO, CA"	37.807	-122.465	9798.663902872331	23	10	13	15	2				0.46		2	72	"R"												
		"n"	"USA"	"CA"	"SAN PEDRO, CA"	33.707	-118.273	9208.420644426786	23	9	18	14	7				0.46		2	26	"R"												
		"n"	"USA"	"CA"	"SAN RAFAEL, CA"	37.97	-122.52	9816.070006755874											1										1				
		"n"	"USA"	"CA"	"SANTA BARBARA, CA"	34.40829	-119.68499	9346.421230313632	23			14	15				1.37		2														
		"n"	"USA"	"CA"	"SANTA CRUZ, CA"	36.97	-122.02	9700.540961179424									0.91		2	20													
		"n"	"USA"	"CA"	"SANTA MONICA, CA"	34.008	-118.5	9247.841809974423	23	9	22	14	11				1.4	91	2	46	"R"												
		"n"	"USA"	"CA"	"SHELTER COVE, CA"	40.02	-124.07	10078.55972776934									0.61		5		"R"												
		"n"	"USA"	"CA"	"STINSON BEACH, CA"	37.9	-122.63	9815.614655923466									1.5	15.24	1														
		"n"	"USA"	"CA"	"TERMINAL ISLAND (LOS ANGELES), CA"	33.75	-118.25	9211.173653851642	23	9	30	14	19				0.95		2	45	"R"												
		"n"	"USA"	"CA"	"WILSON COVE, CA"	33	-118.55	9158.103463569483	23	8	54	13	43				0.64		2	38	"R"												
		"n"	"CANADA"	"BC"	"CAPE SAINT JAMES, BRITISH COLUMBIA"	51.93	-131.02	11435.500852781237	23	12	21	17	9	23	15	50	0.19		2	28	"R"												
		"n"	"CANADA"	"BC"	"MCKENNY ISLAND, BRITISH COLUMBIA"	52.65	-129.48	11423.228788599723	23	13	3	17	52	23	18	0	0.22		2	18	"R"												
		"n"	"CANADA"	"BC"	"PRINCE RUPERT, BRITISH COLUMBIA"	54.32	-130.33	11598.22184757638	23			25	39	23	20	50	0.06		2														
		"n"	"CANADA"	"BC"	"TOFINO (CLAYOQUOT),BRITISH COLUMBIA"	49.153	-125.913	10964.817761504852	23	12	21	17	9	23	17	30	0.63		2	24	"R"												
		"n"	"PANAMA"		"NAOS IS, CANAL ZONE, PACIFIC COAST"	8.92	-79.53	5248.5214959156665	23	4	40	9	29				0.2		2	100													
		"n"	"CHILE"	"LOS LAGOS"	"ANCUD, ISLA DE CHILOE"	-41.867	-73.8278	415.0500921966957									8		1														
		"n"	"CHILE"	"ANTOFAGASTA"	"ANTOFAGASTA"	-23.65	-70.404	1632.0132722624467	22	21	40	2	29				0.7		2	45	"R"												
		"n"	"CHILE"	"BIOBIO"	"ARAUCO"	-37.25	-73.317	99.43203566020306											1														
		"n"	"CHILE"	"ARICA Y PARINACOTA"	"ARICA"	-18.4758	-70.3232	2200.225163406675	22	22	38	3	27				1.05		2	40	"R"												
		"n"	"CHILE"	"ATACAMA"	"CALDERA"	-27.0644	-70.8247	1252.1238589609723	22	21	14	2	3				1.49		2	40	"R"												
		"n"	"CHILE"	"LOS LAGOS"	"ISLA DE CHILOE"	-42.5	-73.917	485.74016637502166									10		1			200	3										
		"n"	"CHILE"	"BIOBIO"	"CONCEPCION"	-36.83	-73.05	149.1064614469527											1														
		"n"	"CHILE"	"MAULE"	"CONSTITUCION"	-35.333	-72.417	324.12118664264244									2.5		1														
		"n"	"CHILE"	"COQUIMBO"	"COQUIMBO"	-29.95	-71.3353	928.6331727541397	22	20	35	1	24				1.1		2	38	"R"												
		"n"	"CHILE"	"BIOBIO"	"CORONEL"	-37.02	-73.15	126.69035339274923									2		1														
		"n"	"CHILE"	"LOS RIOS"	"CORRAL"	-39.867	-73.431	191.4021728297314									10		1			3	1						1				
		"n"	"CHILE"	"LOS LAGOS"	"GUAFO"	-43.58	-74.83	615.5617763920551									10		1														
		"n"	"CHILE"	"BIOBIO"	"ISLA MOCHA"	-38.367	-73.933	52.324465125522515									25		1										1		3		3
		"n"	"CHILE"	"BIOBIO"	"LEBU"	-37.617	-73.65	62.17378664106755									4		1														
		"n"	"CHILE"	"LOS LAGOS"	"MANSA RIVER"	-40.55	-73.76	268.95642568212384									8.5		1														
		"n"	"CHILE"	"LOS RIOS"	"MEHUIN"	-39.43	-73.22	143.7924809114768									15		1										2		2		
		"n"	"CHILE"	"AYSEN"	"PUERTO AISEN"	-45.4	-72.7	808.1589795455998									3		1														
		"n"	"CHILE"	"MAGALLANES"	"PUNTA ARENAS"	-53.17	-70.93	1681.0241865739295	22	23	15	4	4				0.23		2	180	"F"												
		"n"	"CHILE"	"MAULE"	"PUNTA CONSTITUCION"	-35.33	-72.42	324.3689902044814									2.5		1														
		"n"	"CHILE"	"ARAUCANIA"	"PUNTA SAAVEDRA"	-38.78	-73.4	70.712970871776									11.5	3000	1										3		3		
		"n"	"CHILE"	"VALPARAISO (JUAN FERNANDEZ)"	"ROBINSON CRUSOE, JUAN FERNANDEZ IS"	-33.6359	-78.831	699.6784418980086									5		1														
		"n"	"CHILE"	"BIOBIO"	"TALCAHUANO"	-36.6953	-73.1063	162.86337000320214	22	20	5	0	54				2.56		2	34	"F"												
		"n"	"CHILE"	"BIOBIO"	"TOME"	-36.617	-72.95	174.13131177743227									2.5		1														
		"n"	"CHILE"		"ALL OF CHILE"														1			2000	3					550	4		4		
		"n"	"CHILE"	"LOS RIOS"	"VALDIVIA"	-39.8	-73.233	184.56865221000484									10		1			130	3										
		"n"	"CHILE"	"VALPARAISO"	"VALPARAISO"	-33.02767128	-71.62787275	589.9777369567025	22	20	15	1	4				0.85		2	40	"R"												
		"n"	"CHINA"		"HONG KONG"	22.25	114.17	18102.31146607627	23	22	20	27	9				0.5		2	40	"F"												
		"n"	"COLOMBIA"	"VALLE DEL CAUCA"	"BUENAVENTURA"	3.893	-77.069	4669.178704697079											2														
		"n"	"COLOMBIA"	"NARINO"	"TUMACO"	1.833	-78.733	4459.848372682	23										2														
		"n"	"COSTA RICA"		"PUNTARENAS"	9.967	-84.833	5456.723730275015	23	3	25	8	14	24	14	22	0.59		2	48	"F"												
		"n"	"COSTA RICA"		"QUEPOS"	9.4246	-84.1711	5383.303166486739	23	3	45	8	34	24	9	44	0.55		2	45	"F"												
		"n"	"ECUADOR"	"SANTA ELENA"	"LA LIBERTAD"	-2.2177	-80.9064	4051.099020588701	23	1	20	6	9				0.96		2	36	"R"												
		"n"	"EL SALVADOR"	"LA UNION"	"LA UNION"	13.333	-87.817	5893.072139130646									0.53		2	165	"F"												
		"n"	"ECUADOR"	"GALAPAGOS ISLANDS"	"SAN CRISTOBAL ISLAND"	-0.9	-89.616	4444.7730969113345	23	1	40	6	29				0.62		2	28	"F"												
		"n"	"GUATEMALA"		"SAN JOSE"	13.917	-90.833	6042.911356937749	23	4	35	9	24				0.49		2	150	"F"												
		"n"	"USA"	"HI"	"AWEOWEONIU, KAUAI, HI"	21.906	-159.408	11149.734909113764									3.3		1														
		"n"	"USA"	"HI"	"ANINI, KAUAI, HI"	22.23	-159.45	11174.756202802138									0.6		1														
		"n"	"USA"	"HI"	"CAPE KUMUKAHI, HAWAII, HI"	19.52	-154.8	10608.502326236385									0.9		1														
		"n"	"USA"	"HI"	"MOKUOLOE-COCONUT IS, OAHU"	21.433	-157.79	10984.694988172916	23	10	40	15	30				0.3		2	27	"F"												
		"n"	"USA"	"HI"	"HAENA, KAUAI, HI"	22.22	-159.55	11182.337588136606									4.1		1														
		"n"	"USA"	"HI"	"HALAPE, HAWAII, HI"	19.26	-155.25	10627.642253254011									1.5		1														
		"n"	"USA"	"HI"	"HILO, HAWAII, HI"	19.733	-155.067	10645.097246295973	23	9	58	14	47				10.7	182	1	30	"F"	61	2			43	1	23.5	3		1		2
		"n"	"USA"	"HI"	"HONAUNAU, HAWAII, HI"	19.43	-155.9	10692.910920432028									1.5		1														
		"n"	"USA"	"HI"	"HONOKAA, HAWAII, HI"	20.08	-155.47	10702.022540923843									1.8		1														
		"n"	"USA"	"HI"	"HONOLULU, OAHU, HI"	21.3067	-157.867	10982.52806617417	23	10	33	15	22				0.8		2	33	"F"												
		"n"	"USA"	"HI"	"HOOKENA, HAWAII, HI"	19.38	-155.9	10689.488678407322									2.1		1														
		"n"	"USA TERRITORY"	"HI"	"JOHNSTON ISLAND"	16.7363	-169.5283	11668.654902733295	23	11	30	16	18				0.52		2	54	"R"												
		"n"	"USA"	"HI"	"KAALUALU, HAWAII, HI"	18.97	-155.62	10638.263341925267									5.2		1														
		"n"	"USA"	"HI"	"KAHULUI, MAUI, HI"	20.895	-156.477	10840.36160437217	23	10	18	15	7				3.4	762	2	18	"F"								1	6	1		1
		"n"	"USA"	"HI"	"KAILUA-KONA, HAWAII, HI"	19.63	-155.99	10714.019270850638									2.4		1									0.5	1				
		"n"	"USA"	"HI"	"KAIMU, HAWAII, HI"	19.37	-154.97	10612.151282107614									4		1														
		"n"	"USA"	"HI"	"KALAPANA, HAWAII, HI"	19.35	-154.97	10610.77465472792									2.1		1														
		"n"	"USA"	"HI"	"S KAUAI ISLAND, HI"												4.5		1										1				
		"n"	"USA"	"HI"	"KAWAIHAE, HAWAII, HI"	20.036	-155.832	10728.768116475576									2.7		1														
		"n"	"USA"	"HI"	"KEAAU, HAWAII, HI"	19.735	-155.031	10642.277292642822									3.7		1														
		"n"	"USA"	"HI"	"KEAUHOU, HAWAII, HI"	19.57	-155.95	10706.616076602431									3.7		1														
		"n"	"USA"	"HI"	"KIHEI, MAUI, HI"	20.78	-156.45	10830.322725406813									2.4		1										1				
		"n"	"USA"	"HI"	"KULIOUOU, OAHU, HI"	21.29	-157.72	10969.298740116898											1									0.25	1			50	1
		"n"	"USA"	"HI"	"LAHAINA, MAUI, HI"	20.88	-156.68	10856.017311033									2.1		1										1				
		"n"	"USA"	"HI"	"LANAI ISLAND, HI"														1											1	1		
		"n"	"USA"	"HI"	"LAUPAHOEHOE, HAWAII, HI"	19.99	-155.24	10676.961292210615									2.1		1														
		"n"	"USA"	"HI"	"MAHUKONA, HAWAII, HI"	20.186	-155.906	10745.10961563825									1.2		1														
		"n"	"USA TERRITORY"	"HI"	"MIDWAY ISLANDS"	28.215	-177.361	13040.813183150998	23	13	30	18	19				0.6		2	16	"R"												
		"n"	"USA"	"HI"	"MILOLII, HAWAII, HI"	19.188	-155.91	10677.170793849165									0.9		1														
		"n"	"USA"	"HI"	"MOLOKAI ISLAND, HI"														1										1				1
		"n"	"USA"	"HI"	"NAPOOPOO, HAWAII, HI"	19.477	-155.922	10697.943083487851									4.9		1											6	1		
		"n"	"USA"	"HI"	"NAWILIWILI, KAUAI, HI"	21.9544	-159.3561	11148.673120055484	23	10	40	15	29				1.5		2	15	"R"												
		"n"	"USA"	"HI"	"ONOMEA, HAWAII, HI"	19.82	-155.1	10653.788172114264									3.4		1														
		"n"	"USA"	"HI"	"OPIHIKAO, HAWAII, HI"	19.43	-154.88	10608.879315549777									1.8		1														
		"n"	"USA"	"HI"	"PAIA, MAUI, HI"	20.92	-156.38	10834.099486844158									3.7		1											1	1		1
		"n"	"USA"	"HI"	"PAKALA, KAUAI, HI"	21.93	-159.65	11171.320039651879									3.2		1														
		"n"	"USA"	"HI"	"PAPAIKOU, HAWAII, HI"	19.79	-155.1	10651.726360271865									2.7		1														
		"n"	"USA"	"HI"	"PAUKUKALO, MAUI, HI"	20.91	-156.49	10842.448904371893									4.6		1										1				
		"n"	"USA"	"HI"	"PEPEEKEO, HAWAII, HI"	19.83	-155.1	10654.47541940888									1.5		1														
		"n"	"USA"	"HI"	"POHOIKI, HAWAII, HI"	19.46	-154.846	10608.15003135241									1.8		1														
		"n"	"USA"	"HI"	"POLOLU VALLEY, HAWAII, HI"	20.21	-155.73	10732.283828486694									3.4		1														
		"n"	"USA"	"HI"	"PUNALUU BAY, HAWAII, HI"	19.14	-155.5	10640.018780401626									3.4		1														
		"n"	"USA"	"HI"	"SOUTH POINT, HAWAII, HI"	18.91	-155.68	10639.107018037861									3.7		1														
		"n"	"USA"	"HI"	"SPRECKELSVILLE, MAUI, HI"	20.91	-156.407	10835.635177559425									3.4		1											1	1		1
		"n"	"USA"	"HI"	"UPOLU POINT, HAWAII, HI"	20.27	-155.85	10746.24735750716									2.1		1														
		"n"	"USA"	"HI"	"WAHIAWA BAY, KAUAI, HI"	21.899	-159.578	11163.31000308971									4.3		1														
		"n"	"USA"	"HI"	"WAILUA, KAUAI, HI"	22.05	-159.33	11152.884871384702									1.5		1														
		"n"	"USA"	"HI"	"WAIPIO VALLEY, HAWAII, HI"	20.12	-155.59	10714.62084456085									2.4		1														
		"n"	"JAPAN"	"AOMORI"	"AOMORI COAST"	40.83	140.75	17088.078863085404									6.3		1														
		"n"	"JAPAN"	"YAMAGUCHI"	"DANNOURA"	33.97	130.95	17788.644581696644	24	0	40	29	29				0.21		2	150	"R"												
		"n"	"JAPAN"	"HOKKAIDO"	"E. COAST HOKKAIDO"	44	143	16919.69036368552									5		1														
		"n"	"JAPAN"	"SHIZUOKA"	"HAMAMATSU"	34.710833	137.726111	17220.319928034027									1.1		1														
		"n"	"JAPAN"	"HOKKAIDO"	"HOKKAIDO"	44	143	16919.69036368552									5		1														
		"n"	"JAPAN"	"MIYAZAKI"	"HOSOSHIMA"	32.433	131.667	17665.29219960989									0.9		2														
		"n"	"JAPAN"	"NAGASAKI"	"IZUHARA"	34.2	129.3	17940.96544000337									0.09		2		"R"												
		"n"	"JAPAN"	"CHIBA"	"MERA"	34.92	139.826	17043.1136292355									1.3		1														
		"n"	"JAPAN"	"MIE"	"MIE COAST"	34.69	136.54	17323.599877949862									4.9		1														
		"n"	"JAPAN"	"MIYAGI"	"MIYAGI (S. COAST)"	38.45	141.6	16980.086617037206									4																
		"n"	"JAPAN"	"HOKKAIDO"	"MONBETU"	44.38	143.22	16902.11996933837	23	19	10	23	59				0.55		2	70	"F"												
		"n"	"JAPAN"	"FUKUOKA"	"MOZI"	33.95	130.97	17786.172021397688	24	0	25	29	14				0.5		2	135	"F"												
		"n"	"JAPAN"	"MIYAGI"	"N MIYAGI COAST"	38.45	141.6	16980.086617037206									6.4																
		"n"	"JAPAN"	"IWATE"	"RIKUCHU (N.)"	39.83	141.86	16981.8441322424									6.3		1														
		"n"	"JAPAN"	"KAGOSHIMA"	"NAZE"	28.383	129.5	17638.192912306673	23	19	50	24	39				0.7		2	15	"F"												
		"n"	"JAPAN"	"IWATE"	"OFUNATO"	39.017	141.75	16977.904332821716									4.9		1														
		"n"	"JAPAN"	"IWATE"	"RIKUCHU (S.)"	39.3	141.88	16971.718332923192									5.6		1														
		"n"	"JAPAN"	"MIYAGI"	"RIKUZEN"	38	141.88	16946.675999567346									6.4		1														
		"n"	"JAPAN"	"IWATE"	"SANRIKU COAST"	39.33	142	16961.995936628402									6.4		1														
		"n"	"JAPAN"	"MIE"	"TOBA"	34.483	136.817	17292.540269792116									1.6		1														
		"n"	"JAPAN"		"ALL OF JAPAN"														1			142	3			872	3	50	4	4230	4	224	3
		"n"	"JAPAN"	"TOKYO"	"TUKIZI"	35.67	139.77	17070.891615873777	23	18	10	22	59				0.67		2	55	"F"												
		"n"	"JAPAN"	"WAKAYAMA"	"WAKAYAMA COAST"	34.217	135.15	17429.702164703704									2.4		1														
		"n"	"MEXICO"	"GUERRERO"	"ACAPULCO"	16.8379333	-99.903	6686.27518718367	23	5	0	9	49				0.96		2	35	"F"												
		"n"	"MEXICO"	"BAJA CALIFORNIA"	"ENSENADA"	31.8484	-116.6181	8950.932937929478	23	8	48	13	37				1.23		2	50	"R"												
		"n"	"MEXICO"		"GUAYMAS"	27.925	-110.892	8291.165925467312	23	8	16	13	5				0.39		2	155	"F"												
		"n"	"MEXICO"	"BAJA CALIFORNIA SUR"	"LA PAZ"	24.2673167	-110.3328333	7912.128747122829	23	7	56	12	45				0.73		2	105	"R"												
		"n"	"MEXICO"	"SINALOA"	"MAZATLAN"	23.18	-106.42	7614.457948295252	23	6	57	11	46				0.61		2	33	"R"												
		"n"	"MEXICO"	"OAXACA"	"SALINA CRUZ"	16.1684	-95.1968	6428.555328079235	23	4	56	9	45				0.79		2	44	"F"												
		"n"	"MEXICO"		"TOPOLOBAMPO"	25.6	-109.07	7977.77500322775	23	8	2	12	51				0.15		2	95													
		"n"	"KIRIBATI"		"CHRISTMAS ISLAND, LINE ISLANDS"	1.984	-157.473	9628.302190542556	23	9	3	13	52				0.23		2	40													
		"n"	"MARSHALL ISLANDS, REP. OF"	"MH"	"ENEWETAK, MARSHALL ISLANDS"	11.367	162.35	13766.139683365549	23	13	3	17	52				0.15		2	30	"R"												
		"n"	"USA TERRITORY"	"GU"	"APRA HARBOR, GUAM"	13.433	144.65	15376.457433104968	23	16	40	21	29				0.21		2	30	"R"												
		"n"	"MARSHALL ISLANDS, REP. OF"	"MH"	"KWAJALEIN, MARSHALL ISLANDS"	8.733	167.733	13123.329280767091	23	13	20	18	9				0.38		2	10	"R"												
		"n"	"PAPUA NEW GUINEA"	"EAST NEW BRITAIN"	"RABAUL, NEW BRITAIN"	-4.22	152.18	13381.39378791337									1.2		1														
		"n"	"NEW ZEALAND"	"AUCKLAND"	"AUCKLAND"	-36.85	174.78	9155.772420044925									1.2		1														
		"n"	"NEW ZEALAND"		"DUNEDIN"	-45.8143	170.6294	8727.70183714632	23	8	35	13	24				0.15		2		"R"												
		"n"	"NEW ZEALAND"	"GISBORNE"	"GISBORNE"	-38.676	178.028	8807.224461603791									5.49		1	20													
		"n"	"NEW ZEALAND"		"KAITUNA RIVER"	-37.87	176.37	8975.363327348283									0.6		1														
		"n"	"NEW ZEALAND"		"LEIGH"	-36.29	174.8	9196.488596267553									2.4		1														
		"n"	"NEW ZEALAND"	"CANTERBURY"	"LYTTELTON"	-43.6	172.72	8776.052152570323	23	8	12	13	1				3.45		1														
		"n"	"NEW ZEALAND"		"MAKETU"	-37.76	176.44	8978.855434364294									2.32		1														
		"n"	"NEW ZEALAND"	"NORTHLAND"	"MANGONUI"	-34.9885	173.536	9378.682137669302									0.6		1														
		"n"	"NEW ZEALAND"		"MOUNT MAUNGANUI"	-37.64	176.2	9003.522872099207									1.1		1														
		"n"	"NEW ZEALAND"		"NAPIER"	-39.47	176.91	8822.755630983036									3		1														
		"n"	"NEW ZEALAND"		"NGUNGURU"	-35.63	174.5	9266.037318417042									3		1														
		"n"	"NEW ZEALAND"		"OAMARU"	-45.108	170.98	8762.176628689524									3.65		1	60													
		"n"	"NEW ZEALAND"		"OHIWA HARBOUR"	-37.99	177.16	8914.442160689157											1														
		"n"	"NEW ZEALAND"		"OPUA"	-35.32	174.12	9314.714365547363									3		1														
		"n"	"NEW ZEALAND"		"PORT CHALMERS"	-45.82	170.65	8726.107788546558	23	7	50	12	39				0.22		2	40	"R"												
		"n"	"NEW ZEALAND"	"BAY OF PLENTY"	"TAURANGA"	-37.6410885	176.1811791	9004.682479520412	23	8	23	13	12				0.6		2	50	"F"												
		"n"	"NEW ZEALAND"		"TAYLORS POINT"	-45.78	170.67	8728.061925119417	23	7	40	12	29				0.3		2	18	"R"												
		"n"	"NEW ZEALAND"		"TE AWANGA"	-39.64	176.98	8805.821792709932									3		1														
		"n"	"NEW ZEALAND"		"TUTUKAKA"	-35.6	174.533	9266.104780676422									3		2														
		"n"	"NEW ZEALAND"		"WAITANGI, CHATHAM ISLAND"	-43.95	-176.56	8087.780865459953											1														
		"n"	"NEW ZEALAND"	"WELLINGTON"	"WELLINGTON"	-41.2846	174.7791	8824.559948450511	23	7	45	12	34				0.47		2	28	"R"												
		"n"	"NEW ZEALAND"		"WHAKATANE"	-37.97	176.99	8927.141229283789									0.5		1														
		"n"	"NEW ZEALAND"		"WHANGAREI"	-35.76	174.35	9266.186317991542									1		1														
		"n"	"NEW ZEALAND"		"WHITIANGA"	-36.84	-175.69	8506.591253271295									1.2		1														
		"n"	"USA"	"OR"	"ASTORIA, OR"	46.208	-123.767	10608.228585785764	23	12	40	17	29				0.14		2	90	"F"												
		"n"	"USA"	"OR"	"BANDON, OR"	43.119	-124.408	10367.962975248991											1														
		"n"	"USA"	"OR"	"GOLD BEACH, OR"	42.4	-124.42	10305.533525047631											1										1				
		"n"	"USA"	"OR"	"NEWPORT, OR"	44.65	-124.06	10485.198105668647	23	12	25	17	14				0.61		1	52	"R"												
		"n"	"USA"	"OR"	"OCEAN VISTA, SEASIDE, OR"	45.98	-123.92	10595.398311993935											1														
		"n"	"USA"	"OR"	"SEASIDE, OR"	45.98	-123.92	10595.398311993935	23	15	11	20	0				1.5		1										1				
		"n"	"USA"	"OR"	"TILLAMOOK, OR"	45.46	-123.84	10545.844994870242											1										1				
		"n"	"PAPUA NEW GUINEA"	"EAST SEPIK"	"WEWAK"	-3.57	143.63	14025.462826917073									1.8		1														
		"n"	"SAMOA"		"APIA, UPOLU ISLAND"	-13.83	-171.767	9787.160303953835	23	7	29	12	18				4.9		1	8													
		"n"	"KIRIBATI"		"KANTON ISLAND, PHOENIX ISLANDS"	-2.817	-171.717	10545.955288444524	23	9	24	14	13				0.1		2	12	"R"												
		"n"	"CHILE"	"VALPARAISO (ISLA DE PASCUA)"	"EASTER ISLAND"	-27.15	-109.33	3557.6426331385783									6		1										1				
		"n"	"USA TERRITORY"	"AS"	"FAGAALU, TUTUILA I, AMERICAN SAMOA"	-14.3	-170.68	9663.024406190416									0.8		1														
		"n"	"MICRONESIA, FED. STATES OF"		"TRUK ISLANDS, CAROLINE ISLANDS"	7.3666	151.8833	14340.64898643554	23	14	36	19	25				0.3		2	34													
		"n"	"UK TERRITORY"	"PITCAIRN ISLANDS"	"PITCAIRN ISLAND"	-25.07	-130.1	5484.541879405731									12.2		1														
		"n"	"FIJI"		"SUVA, KING'S WHARF"	-18.1342	178.4236	10283.686616547426	23	8	30	13	19				0.5		2	60	"R"												
		"n"	"USA TERRITORY"	"UM"	"WAKE ISLAND"	19.29	166.6183	13911.49069324344	23	13	33	18	22				0.5		2	14	"R"												
		"n"	"PERU"	"CALLAO"	"CALLAO LA PUNTA"	-12.069	-77.1668	2912.7256510201814	22	23	45	4	34				1.1		2														
		"n"	"PERU"	"ANCASH"	"CHIMBOTE"	-9.083	-78.616	3261.0613294790483	23	0	38	5	27				0.84		2	150	"F"												
		"n"	"PERU"	"AREQUIPA"	"MATARANI"	-17	-72.117	2346.4519816056213	22	22	36	3	25				0.61		2	96	"F"												
		"n"	"PERU"	"ICA"	"SAN JUAN"	-15.35	-75.16	2531.525804964538	22	22	40	3	29				0.46		2	42	"F"												
		"n"	"PERU"	"PIURA"	"TALARA"	-4.583	-81.283	3801.589748601775	23	0	34	5	23				0.59		2	165	"R"												
		"n"	"PHILIPPINES"		"ALL OF PHILIPPINES"														1			21	1										
		"n"	"PHILIPPINES"		"HONDAGUA"	13.95	122.23	16917.119817195584	23	21	15	26	4				1.46		2	58	"F"												
		"n"	"PHILIPPINES"		"LEGASPI"	13.15	123.75	16762.797384046044	23	19	20	24	9				0.67		2	40	"F"												
		"n"	"PHILIPPINES"		"TACLOBAN"	11.25	125	16513.31179094863	23	21	12	26	1				0.29		2	66	"F"												
		"n"	"TAIWAN"		"AN-PING"	23	120.09	17897.981545716346	23	22	30	27	19				0.27		2	60	"F"												
		"n"	"TAIWAN"		"HUALIEN"	23.97	121.613	17893.56236336679	23	19	20	24	9				0.5		2	25													
		"n"	"TAIWAN"		"KAO-HSIUNG"	22.62	120.28	17852.145765396057	23	20	30	25	19				0.07		2	75	"F"												
		"n"	"TAIWAN"		"KEELUNG"	25.15	121.75	17985.87770433308	23	20	30	25	19				0.58		2	32	"R"												
		"n"	"TAIWAN"		"PENG-HU"	23.57	119.55	17981.16552557671	23	22	48	27	37				0.11		2	115	"R"												
		"n"	"RUSSIA"	"KURIL ISLANDS"	"SEVERO-KURILSK, PARAMUSHIR ISLAND"	50.42	155.83	15942.534127669933									4.7		1														
		"n"	"USA"	"WA"	"ECHO BAY, WA"	48.75	-122.9	10793.005371218003	23	17	5	21	54						2														
		"n"	"USA"	"WA"	"FRIDAY HARBOR, WA"	48.547	-123.007	10779.803792359073	23	16	30	21	19				0.1		2	33	"R"												
		"n"	"USA"	"WA"	"GRAYS HARBOR, WA"	46.95	-124.03	10685.797789292796									0.3		2														
		"n"	"USA"	"WA"	"ILWACO, WA"	46.3	-124.03	10628.723784782178											1														
		"n"	"USA"	"WA"	"NEAH BAY, WA"	48.367	-124.612	10836.758085952753	23	12	25	17	14				0.37		2	52	"R"												
		"n"	"USA"	"WA"	"TOKELAND, WA"	46.7	-123.97	10661.036118587335	23	17	45	22	34				0.61		2														
		"n"	"USA"	"WA"	"WILLAPA BAY, WA"	46.68	-124.07	10663.97072745145									0.61		1														
		"n"	"USA"	"AK"	"CAPE POLE, KOSCIUSKO ISLAND, AK"	55.95	-133.8	11882.667387359654									1		1										1				
		"n"	"USA"	"AK"	"YAKUTAT, AK"	59.55	-139.733	12412.654504897995	23	14	18	19	7				0.76		2	30	"R"												
		"n"	"USA"	"AK"	"CRAIG, AK"	55.46	-133.13	11814.390844955142									1		1														
		"n"	"USA"	"AK"	"KANAK ISLAND, CONTROLLER BAY, AK"	60.15	-144.37	12660.121794525734											1										1				
		"n"	"USA"	"AK"	"KLAKAS INLET, AK"	54.993	-132.417	11745.541980420005									1.22		1														
		"n"	"USA"	"AK"	"MONTAGUE ISLAND, AK"	60.059	-147.341	12790.98958429944									2.29		2										1				
		"n"	"USA"	"AK"	"POINT HOPE, AK"	68.2	-166.5	14000.668786872558											1														
		"n"	"USA"	"AK"	"CAPE DECISION, KUIU ISLAND, AK"	56.4	-134	11926.44127029783									0.61		1	30													
		"n"	"USA"	"HI"	"KAHALUU, HAWAII, HI"	19.583	-155.969	10709.072739343208									3		1														
		"n"	"USA"	"HI"	"KAUMAKANI, KAUAI, HI"	21.92	-159.62	11168.176506207821									2.7		1														
		"n"	"USA"	"HI"	"KEKAHA, KAUI, HI"	21.967	-159.7	11177.9102469314									3		1														
		"n"	"USA"	"CA"	"TOMALES BAY, CA"	38.169	-122.909	9854.19533897549											1														
		"n"	"USA"	"HI"	"HONOLULU LANDING, OAHU, HI"	21.32	-157.83	10980.376768767681									4.3		2														
		"n"	"USA"	"HI"	"POLIHALE, KAUAI, HI"	22.098	-159.752	11190.906192002809									2.4		5														
		"n"	"USA"	"HI"	"W. COAST KAUAI, HI"	22.013	-159.783	11187.823724596397									2.1		5														
		"n"	"USA"	"HI"	"HAENA STATE PARK, KAUAI, HI"	22.226	-159.585	11185.623058599735									2.9		5														
		"n"	"USA"	"HI"	"HAENA, KAUAI, HI"	22.226	-159.573	11184.633259053759									2		5														
		"n"	"USA"	"HI"	"HAENA, KAUAI, HI"	22.224	-159.57	11184.25294238422									4.1		5														
		"n"	"USA"	"HI"	"HALE HOMAHA, KAUAI, HI"	22.228	-159.557	11183.446475589853									2.9		5														
		"n"	"USA"	"HI"	"HALE HOMAHA, KAUAI, HI"	22.226	-159.549	11182.653786930334									1.7		5														
		"n"	"USA"	"HI"	"WAINIHA BAY, KAUAI, HI"	22.221	-159.545	11181.991653565961									2.9		5														
		"n"	"USA"	"HI"	"LUMAHAI BEACH, KAUAI, HI"	22.219	-159.532	11180.786590486588									1.7		5														
		"n"	"USA"	"HI"	"LUMAHAI BEACH, KAUAI, HI"	22.218	-159.524	11180.060362970386									2.9		5														
		"n"	"USA"	"HI"	"HANALEI BAY, KAUAI, HI"	22.215	-159.521	11179.613575067526									1.7		5														
		"n"	"USA"	"HI"	"HANALEI, KAUAI, HI"	22.216	-159.501	11178.030684379499									2.6		5														
		"n"	"USA"	"HI"	"HANALEI, KAUAI, HI"	22.216	-159.501	11178.030684379499									2.7		5														
		"n"	"USA"	"HI"	"HANALEI, KAUAI, HI"	22.216	-159.501	11178.030684379499									2.3		5														
		"n"	"USA"	"HI"	"ANINI BEACH, KAUAI, HI"	22.228	-159.468	11176.107278344394									0.6		5														
		"n"	"USA"	"HI"	"HONONO POINT, KAUAI, HI"	22.229	-159.458	11175.349278384425									1.2		5														
		"n"	"USA"	"HI"	"KALIHIKAI BEACH, KAUAI, HI"	22.227	-159.447	11174.309409990328									1.1		5														
		"n"	"USA"	"HI"	"KALIHIWAI BAY, KAUAI, HI"	22.226	-159.438	11173.500933857393									1.5		5														
		"n"	"USA"	"HI"	"KALIHIWAI BAY, KAUAI, HI"	22.222	-159.434	11172.905192123579									1.8		5														
		"n"	"USA"	"HI"	"KALIHIWAI BAY, KAUAI, HI"	22.224	-159.429	11172.625977560037									1.7		5														
		"n"	"USA"	"HI"	"KILAUEA BAY, KAUAI, HI"	22.222	-159.387	11169.030730911825									1.2		5														
		"n"	"USA"	"HI"	"PAKALA, KAUAI, HI"	22.207	-159.338	11163.994040301897									1.8		5														
		"n"	"USA"	"HI"	"MOLOAA BAY, KAUAI, HI"	22.197	-159.335	11163.08137118932									1.8		5														
		"n"	"USA"	"HI"	"AHIHI POINT, KAUAI, HI"	22.124	-159.298	11155.172598877898									1.8		5														
		"n"	"USA"	"HI"	"POHAKULOA POINT, KAUAI, HI"	22.131	-159.295	11155.391290114598									1.8		5														
		"n"	"USA"	"HI"	"PAPALOA, KAUAI, HI"	22.138	-159.296	11155.939736419676									1.7		5														
		"n"	"USA"	"HI"	"ANAHOLA BEACH, KAUAI, HI"	22.15	-159.303	11157.315610195075									1.8		5														
		"n"	"USA"	"HI"	"KUAEHU POINT, KAUAI, HI"	22.164	-159.311	11158.906946405841									1.8		5														
		"n"	"USA"	"HI"	"PALIKU POINT, KAUAI, HI"	22.115	-159.298	11154.573425470753									2.7		5														
		"n"	"USA"	"HI"	"PALIKU POINT, KAUAI, HI"	22.109	-159.299	11154.256416554168									2.1		5														
		"n"	"USA"	"HI"	"KEALIA, KAUAI, HI"	22.097	-159.308	11154.19958827066									1.8		5														
		"n"	"USA"	"HI"	"KAPAA, KAUAI, HI"	22.082	-159.316	11153.860652287805									1.4		5														
		"n"	"USA"	"HI"	"KAPAA, KAUAI, HI"	22.079	-159.318	11153.825860832634									2.1		5														
		"n"	"USA"	"HI"	"KAPAA, KAUAI, HI"	22.076	-159.32	11153.79107362362									1.8		5														
		"n"	"USA"	"HI"	"KAPAA, KAUAI, HI"	22.072	-159.319	11153.44229962989									2.1		5														
		"n"	"USA"	"HI"	"KAPAA, KAUAI, HI"	22.069	-159.321	11153.40751553924									2.1		5														
		"n"	"USA"	"HI"	"WAIPOULI, KAUAI, HI"	22.063	-159.321	11153.008054056832									2.1		5														
		"n"	"USA"	"HI"	"WAILUA BAY, KAUAI, HI"	22.056	-159.329	11153.201845964746									2.7		5														
		"n"	"USA"	"HI"	"WAILUA BAY, KAUAI, HI"	22.052	-159.338	11153.677899197417									1.5		5														
		"n"	"USA"	"HI"	"HANAMAULU BAY, KAUAI, HI"	21.996	-159.343	11150.362023865506									2.1		5														
		"n"	"USA"	"HI"	"HANAMAULU BAY, KAUAI, HI"	22.005	-159.336	11150.383722553504									2		5														
		"n"	"USA"	"HI"	"WAILUA, KAUAI, HI"	22.037	-159.338	11152.679281689552									2.3		5														
		"n"	"USA"	"HI"	"NAWILIWILI BAY, KAUAI, HI"	21.961	-159.341	11147.866433112775									1.8		5														
		"n"	"USA"	"HI"	"NAWILIWILI BAY, KAUAI, HI"	21.961	-159.351	11148.691693379977									1.8		5														
		"n"	"USA"	"HI"	"NAWILIWILI BAY, KAUAI, HI"	21.96	-159.355	11148.95521989512									1.4		5														
		"n"	"USA"	"HI"	"NAWILIWILI BAY, KAUAI, HI"	21.953	-159.36	11148.901776817178									1.7		5														
		"n"	"USA"	"HI"	"PAOO POINT, KAUAI, HI"	21.897	-159.407	11149.053148777428									3.4		5														
		"n"	"USA"	"HI"	"SOUTHEAST COAST KAUAI, HI"	21.891	-159.42	11149.727151725485									3		5														
		"n"	"USA"	"HI"	"NU KUMOI POINT, KAUAI, HI"	21.875	-159.458	11151.800326891991									1.5		5														
		"n"	"USA"	"HI"	"POIPU, KAUAI, HI"	21.882	-159.472	11153.42256593493									0.8		5														
		"n"	"USA"	"HI"	"KUKUIULA, KAUAI, HI"	21.884	-159.483	11154.464236647447									1.5		5														
		"n"	"USA"	"HI"	"KUKUIULA BAY, KAUAI, HI"	21.888	-159.492	11155.473812638882									1.5		5														
		"n"	"USA"	"HI"	"KUKUIULA, KAUAI, HI"	21.888	-159.497	11155.886812112527									2.4		5														
		"n"	"USA"	"HI"	"NAHUNAKUEU, KAUAI, HI"	21.89	-159.541	11159.654569746157									3.4		5														
		"n"	"USA"	"HI"	"WAHIAWA BAY, KAUAI, HI"	21.899	-159.578	11163.31000308971									4.3		5														
		"n"	"USA"	"HI"	"HANAPEPE BAY, KAUAI, HI"	21.906	-159.597	11165.3453137138									2.3		5														
		"n"	"USA"	"HI"	"HANAPEPE BAY, KAUAI, HI"	21.903	-159.6	11165.393693337443									2.7		5														
		"n"	"USA"	"HI"	"PUOLO POINT, KAUAI, HI"	21.895	-159.607	11165.440115276371									1.8		5														
		"n"	"USA"	"HI"	"HANAPEPE, KAUAI, HI"	21.903	-159.612	11166.385206822235									2.4		5														
		"n"	"USA"	"HI"	"ANAKUA POINT, KAUAI, HI"	21.906	-159.621	11167.32833174593									3		5														
		"n"	"USA"	"HI"	"SOUTHWEST COAST KAUAI, HI"	21.91	-159.627	11168.090049131713									2.7		5														
		"n"	"USA"	"HI"	"SOUTHWEST COAST KAUAI, HI"	21.916	-159.636	11169.232600804286									2.3		5														
		"n"	"USA"	"HI"	"SOUTHWEST COAST KAUAI, HI"	21.916	-159.637	11169.315230399061									1.7		5														
		"n"	"USA"	"HI"	"SOUTHWEST COAST KAUAI, HI"	21.924	-159.641	11170.177557247336									2.7		5														
		"n"	"USA"	"HI"	"SOUTHWEST COAST KAUAI, HI"	21.927	-159.644	11170.624860970907									3		5														
		"n"	"USA"	"HI"	"SOUTHWEST COAST KAUAI, HI"	21.93	-159.647	11171.072157828823									3.5		5														
		"n"	"USA"	"HI"	"MAKAWELI LANDING, KAUAI, HI"	21.939	-159.653	11172.166131343984									3.2		5														
		"n"	"USA"	"HI"	"WAIMEA, KAUAI, HI"	21.955	-159.669	11174.55149458771									2.9		5														
		"n"	"USA"	"HI"	"WAIMEA, KAUAI, HI"	21.956	-159.671	11174.78319617367									2		5														
		"n"	"USA"	"HI"	"KEKAHA, KAUAI, HI"	21.963	-159.703	11177.892369378815									2.9		5														
		"n"	"USA"	"HI"	"KEKAHA, KAUAI, HI"	21.964	-159.711	11178.619850842262									3		5														
		"n"	"USA"	"HI"	"KEKAHA, KAUAI, HI"	21.969	-159.716	11179.365181768962									2.6		5														
		"n"	"USA"	"HI"	"KEKAHA, KAUAI, HI"	21.973	-159.729	11180.70511624643									2		5														
		"n"	"USA"	"HI"	"MAILI, OAHU, HI"	21.431	-158.183	11016.921421793902									3		5														
		"n"	"USA"	"HI"	"KANEILIO POINT, OAHU, HI"	21.443	-158.194	11018.634021703125									2.4		5														
		"n"	"USA"	"HI"	"LAHILAHI POINT, OAHU, HI"	21.466	-158.216	11021.991751355758									2.7		5														
		"n"	"USA"	"HI"	"KEPUHI POINT, OAHU, HI"	21.481	-158.228	11023.987918717468									3.4		5														
		"n"	"USA"	"HI"	"WEST COAST OAHU, HI"	21.54	-158.235	11028.526413331283									2.4		5														
		"n"	"USA"	"HI"	"WEST COAST OAHU, HI"	21.547	-158.243	11029.65537164958									3.7		5														
		"n"	"USA"	"HI"	"KAIAKA BAY, OAHU, HI"	21.586	-158.121	11022.228409798934									3.4		5														
		"n"	"USA"	"HI"	"WAIALUA BAY, OAHU, HI"	21.593	-158.115	11022.204782825635									3.7		5														
		"n"	"USA"	"HI"	"WAIALUA BAY, OAHU, HI"	21.601	-158.107	11022.083758763494									2.4		5														
		"n"	"USA"	"HI"	"WAIMEA BAY, OAHU, HI"	21.643	-158.068	11021.696222847195									3.4		5														
		"n"	"USA"	"HI"	"SUNSET BEACH, OAHU, HI"	21.677	-158.044	11022.006406514585									2.4		5														
		"n"	"USA"	"HI"	"KAWELA BAY, OAHU, HI"	21.7	-158.018	11021.413543352703									2.7		5														
		"n"	"USA"	"HI"	"NORTH COAST OAHU, HI"	21.714	-157.975	11018.818603671956									1.2		5														
		"n"	"USA"	"HI"	"KAHUKU, OAHU, HI"	21.692	-157.948	11015.119647236264									1.8		5														
		"n"	"USA"	"HI"	"HAUULA, OAHU, HI"	21.618	-157.914	11007.347343870068									2.4		5														
		"n"	"USA"	"HI"	"PUNALUU BEACH, OAHU, HI"	21.584	-157.887	11002.83945846835									2.1		5														
		"n"	"USA"	"HI"	"KAHANA BAY, OAHU, HI"	21.56	-157.875	11000.237575556788									2.4		5														
		"n"	"USA"	"HI"	"KAAAWA, OAHU, HI"	21.55	-157.848	10997.343756110708									1.2		5														
		"n"	"USA"	"HI"	"KAAAWA, OAHU, HI"	21.539	-157.841	10996.027616926862									1.2		5														
		"n"	"USA"	"HI"	"KAAAWA, OAHU, HI"	21.531	-157.837	10995.16011303516									1.5		5														
		"n"	"USA"	"HI"	"KUALOA POINT, OAHU, HI"	21.514	-157.837	10994.015783485283									1.5		5														
		"n"	"USA"	"HI"	"WAIAHOLE, OAHU, HI"	21.493	-157.85	10993.671694060462									0.6		5														
		"n"	"USA"	"HI"	"KAHALUU, OAHU, HI"	21.454	-157.817	10988.33082530109									0.6		5														
		"n"	"USA"	"HI"	"MOAKPU PENINSULA, OAHU, HI"	21.46	-157.756	10983.716290053853									1.5		5														
		"n"	"USA"	"HI"	"ULUPAU HEAD, OAHU, HI"	21.461	-157.738	10982.30299239117									2.1		5														
		"n"	"USA"	"HI"	"KAILUA, OAHU, HI"	21.405	-157.738	10978.530163602081									1.5		5														
		"n"	"USA"	"HI"	"WAILEA POINT, OAHU, HI"	21.379	-157.709	10974.391996407847									1.8		5														
		"n"	"USA"	"HI"	"BELLOWS FIELD BEACH, OAHU, HI"	21.351	-157.707	10972.340305021562									2.7		5														
		"n"	"USA"	"HI"	"MAKAPUU HEAD, OAHU, HI"	21.314	-157.654	10965.484446647122									1.8		5														
		"n"	"USA"	"HI"	"SANDY BEACH, OAHU, HI"	21.282	-157.683	10965.713630909155									2.7		5														
		"n"	"USA"	"HI"	"HANAUMA BAY, OAHU, HI"	21.274	-157.699	10966.491376049677									1.8		5														
		"n"	"USA"	"HI"	"PORTLOCK, OAHU, HI"	21.268	-157.714	10967.321788169236									1.5		5														
		"n"	"USA"	"HI"	"PAIKO PENINSULA, OAHU, HI"	21.284	-157.725	10969.305933871317									2.4		5														
		"n"	"USA"	"HI"	"NIU VALLEY, OAHU, HI"	21.283	-157.739	10970.39113992251									1.8		5														
		"n"	"USA"	"HI"	"DIAMOND HEAD, OAHU, HI"	21.258	-157.815	10974.964975004774									1.8		5														
		"n"	"USA"	"HI"	"WAIKIKI BEACH, OAHU, HI"	21.277	-157.827	10977.233303726602									2.7		5														
		"n"	"USA"	"HI"	"HONOLULU, OAHU, HI"	21.3	-157.867	10982.076879503209									1.5		5														
		"n"	"USA"	"HI"	"HONOLULU HARBOR, OAHU, HI"	21.299	-157.871	10982.338993441479									1.5		5														
		"n"	"USA"	"HI"	"HICKAM HARBOR, OAHU, HI"	21.32	-157.955	10990.672049323643									0.9		5														
		"n"	"USA"	"HI"	"EWA BEACH, OAHU, HI"	21.313	-158.008	10994.567710122425									2.7		5														
		"n"	"USA"	"HI"	"BARBERS POINT, OAHU, HI"	21.3218	-158.1193	11004.33233035436									2.1		5														
		"n"	"USA"	"HI"	"KAHE POINT, OAHU, HI"	21.347	-158.132	11007.073267975093									2.7		5														
		"n"	"USA"	"HI"	"NANAKULI, OAHU, HI"	21.375	-158.143	11009.861954401962									2.7		5														
		"n"	"USA"	"HI"	"NANAKULI, OAHU, HI"	21.394	-158.16	11012.53990645986									2.4		5														
		"n"	"USA"	"HI"	"MAILI POINT, OAHU, HI"	21.401	-158.174	11014.164063020775									2.4		5														
		"n"	"USA"	"HI"	"LAHAINA, MAUI, HI"	20.87	-156.679	10855.255982991304									2.7		5														
		"n"	"USA"	"HI"	"LAHAINA, MAUI, HI"	20.875	-156.682	10855.842100103884									2.1		5														
		"n"	"USA"	"HI"	"PUUNOA POINT, MAUI, HI"	20.888	-156.689	10857.300198017332									2.7		5														
		"n"	"USA"	"HI"	"HANAKAOO POINT, MAUI, HI"	20.914	-156.695	10859.558774874778									3		5														
		"n"	"USA"	"HI"	"HONOKOWAI, MAUI, HI"	20.946	-156.696	10861.813716783852									3		5														
		"n"	"USA"	"HI"	"KAIA POINT, MAUI, HI"	20.983	-156.679	10862.929467191167									3		5														
		"n"	"USA"	"HI"	"ONELOA BAY, MAUI, HI"	21.008	-156.666	10863.559294742214									2.4		5														
		"n"	"USA"	"HI"	"HONOLUA BAY, MAUI, HI"	21.019	-156.642	10862.335526321385									2.1		5														
		"n"	"USA"	"HI"	"NORTHWEST COAST MAUI, HI"	21.026	-156.629	10861.743554705112									2.4		5														
		"n"	"USA"	"HI"	"HONOKOHAU BAY, MAUI, HI"	21.025	-156.613	10860.362077653828									3		5														
		"n"	"USA"	"HI"	"NAKALELE POINT, MAUI, HI"	21.027	-156.59	10858.60982654323									3		5														
		"n"	"USA"	"HI"	"KAHAKULOA BAY, MAUI, HI"	21.006	-156.556	10854.392191017118									3.7		5														
		"n"	"USA"	"HI"	"WAIHEE, MAUI, HI"	20.938	-156.507	10845.748204133602									4		5														
		"n"	"USA"	"HI"	"WAIEHU POINT, MAUI, HI"	20.929	-156.496	10844.233276748815									3		5														
		"n"	"USA"	"HI"	"PAUKUKALO, MAUI, HI"	20.911	-156.485	10842.106370046438									4.6		5														
		"n"	"USA"	"HI"	"KAHULUI BAY, MAUI, HI"	20.902	-156.482	10841.248115219578									3.4		5														
		"n"	"USA"	"HI"	"KAHULUI HARBOR, MAUI, HI"	20.895	-156.477	10840.36160437217									3.7		5														
		"n"	"USA"	"HI"	"KAHULUI, MAUI, HI"	20.901	-156.464	10839.70223854716									3		5														
		"n"	"USA"	"HI"	"KAHULUI, MAUI, HI"	20.901	-156.455	10838.963335325669									5.2		5														
		"n"	"USA"	"HI"	"PAPAULA POINT, MAUI, HI"	20.912	-156.423	10837.084536439965									4		5														
		"n"	"USA"	"HI"	"SPRECKELSVILLE, MAUI, HI"	20.912	-156.415	10836.427872073451									3.4		5														
		"n"	"USA"	"HI"	"SPRECKELSVILLE, MAUI, HI"	20.917	-156.407	10836.111350291063									4.3		5														
		"n"	"USA"	"HI"	"PAIA BAY, MAUI, HI"	20.919	-156.396	10835.344577684715									3.4		5														
		"n"	"USA"	"HI"	"PAIA BAY, MAUI, HI"	20.922	-156.384	10834.563825860529									3.7		5														
		"n"	"USA"	"HI"	"LOWER PAIA, MAUI, HI"	20.927	-156.377	10834.329537544825									3.4		5														
		"n"	"USA"	"HI"	"NORTH COAST MAUI, HI"	20.936	-156.365	10833.957156404578									3.7		5														
		"n"	"USA"	"HI"	"HONOMANU BAY, MAUI, HI"	20.87	-156.17	10813.465786508028									2.7		5														
		"n"	"USA"	"HI"	"KEANAE POINT, MAUI, HI"	20.868	-156.146	10811.361037982851									2.7		5														
		"n"	"USA"	"HI"	"HONOLULUNUI BAY, MAUI, HI"	20.83	-156.099	10804.916308822309									3.7		5														
		"n"	"USA"	"HI"	"HANA BAY, MAUI, HI"	20.76	-155.987	10790.956756268415									3		5														
		"n"	"USA"	"HI"	"HAMOA, MAUI, HI"	20.723	-155.987	10788.432264597186									2.7		5														
		"n"	"USA"	"HI"	"KAAPAHU BAY, MAUI, HI"	20.65	-156.072	10790.427128913234									3		5														
		"n"	"USA"	"HI"	"KAAPAHU BAY, MAUI, HI"	20.652	-156.084	10791.548587790632									3		5														
		"n"	"USA"	"HI"	"SOUTH COAST MAUI, HI"	20.638	-156.115	10793.13885538831									3		5														
		"n"	"USA"	"HI"	"NUU BAY, MAUI, HI"	20.63	-156.184	10798.259534506959									3		5														
		"n"	"USA"	"HI"	"HUAKINI BAY, MAUI, HI"	20.63	-156.198	10799.409380017247									3.7		5														
		"n"	"USA"	"HI"	"LA PEROUSE BAY, MAUI, HI"	20.599	-156.427	10816.116313886818									3.4		5														
		"n"	"USA"	"HI"	"AHIHI BAY, MAUI, HI"	20.628	-156.446	10819.652066346735									2.7		5														
		"n"	"USA"	"HI"	"MAKENA, MAUI, HI"	20.657	-156.445	10821.543292817609									3		5														
		"n"	"USA"	"HI"	"WAILEA, MAUI, HI"	20.686	-156.446	10823.598791876464									2.7		5														
		"n"	"USA"	"HI"	"ILIILIHOLO BEACH, MAUI, HI"	20.724	-156.451	10826.59516346173									2.1		5														
		"n"	"USA"	"HI"	"ILIILIHOLO BEACH, MAUI, HI"	20.732	-156.454	10827.385946685521									1.5		5														
		"n"	"USA"	"HI"	"WAIMAHAIHAI BEACH, MAUI, HI"	20.75	-156.462	10829.267815789952									1.2		5														
		"n"	"USA"	"HI"	"LAIE, MAUI, HI"	20.764	-156.463	10830.302327197533									1.5		5														
		"n"	"USA"	"HI"	"KIHEI, MAUI, HI"	20.785	-156.467	10832.05939579458									2.4		5														
		"n"	"USA"	"HI"	"KIHEI, MAUI, HI"	20.793	-156.477	10833.425042352554									2.4		5														
		"n"	"USA"	"HI"	"MAALAEA, MAUI, HI"	20.799	-156.507	10836.297733239739									2.1		5														
		"n"	"USA"	"HI"	"MAALAEA, MAUI, HI"	20.795	-156.514	10836.600861870647									3.4		5														
		"n"	"USA"	"HI"	"PAPAWAI POINT, MAUI, HI"	20.778	-156.537	10837.33486579604									2.1		5														
		"n"	"USA"	"HI"	"SOUTHWEST COAST MAUI, HI"	20.796	-156.571	10841.35258986643									2.4		5														
		"n"	"USA"	"HI"	"MOPUA, MAUI, HI"	20.81	-156.604	10845.016095147424									2.7		5														
		"n"	"USA"	"HI"	"SOUTHWEST COAST MAUI, HI"	20.814	-156.628	10847.260381801438									2.4		5														
		"n"	"USA"	"HI"	"SOUTHWEST COAST MAUI, HI"	20.83	-156.638	10849.169343669046									2.7		5														
		"n"	"USA"	"HI"	"LAUNIUPOKO BEACH, MAUI, HI"	20.846	-156.656	10851.735628683833									2.7		5														
		"n"	"USA"	"HI"	"MAHUKONA, HAWAII, HI"	20.195	-155.906	10745.724679903573									1.2		5														
		"n"	"USA"	"HI"	"LIMUOKO POINT, HAWAII, HI"	20.264	-155.881	10748.384967915166									2.1		5														
		"n"	"USA"	"HI"	"UPOLU POINT, HAWAII, HI"	20.269	-155.85	10746.179004179274									2.7		5														
		"n"	"USA"	"HI"	"NORTHEAST COAST HAWAII, HI"	20.217	-155.734	10733.09135993129									3		5														
		"n"	"USA"	"HI"	"NORTHEAST COAST HAWAII, HI"	20.21	-155.734	10732.612492486158									3.4		5														
		"n"	"USA"	"HI"	"WAIPIO BAY, HAWAII, HI"	20.124	-155.595	10715.3055662138									2.4		5														
		"n"	"USA"	"HI"	"NORTHEAST COAST HAWAII, HI"	20.105	-155.472	10703.900209812722									1.8		5														
		"n"	"USA"	"HI"	"LAUPAHOEHOE POINT, HAWAII, HI"	19.997	-155.244	10677.770220260823									2.1		5														
		"n"	"USA"	"HI"	"HAKALAU, HAWAII, HI"	19.904	-155.129	10661.941615012182									2.7		5														
		"n"	"USA"	"HI"	"HONOMU, HAWAII, HI"	19.879	-155.112	10658.82806852586									3.7		5														
		"n"	"USA"	"HI"	"PEPEEKEO, HAWAII, HI"	19.848	-155.085	10654.480670077633									1.5		5														
		"n"	"USA"	"HI"	"ONOMEA BAY, HAWAII, HI"	19.81	-155.094	10652.608102744292									3.4		5														
		"n"	"USA"	"HI"	"MOKIHANA BAY, HAWAII, HI"	19.78	-155.09	10650.217596000184									2.7		5														
		"n"	"USA"	"HI"	"HONOLII COVE, HAWAII, HI"	19.758	-155.093	10648.95188176462									4		5														
		"n"	"USA"	"HI"	"HILO, HAWAII, HI"	19.733	-155.067	10645.097246295973									5.8		5														
		"n"	"USA"	"HI"	"HILO, HAWAII, HI"	19.733	-155.067	10645.097246295973									4.3		5														
		"n"	"USA"	"HI"	"HILO, HAWAII, HI"	19.733	-155.067	10645.097246295973									5.8		5														
		"n"	"USA"	"HI"	"HILO, HAWAII, HI"	19.733	-155.067	10645.097246295973									6.7		5														
		"n"	"USA"	"HI"	"HILO, HAWAII, HI"	19.733	-155.067	10645.097246295973									10.7		5														
		"n"	"USA"	"HI"	"HILO, HAWAII, HI"	19.733	-155.067	10645.097246295973									6.1		5														
		"n"	"USA"	"HI"	"HILO, HAWAII, HI"	19.733	-155.067	10645.097246295973									6.4		5														
		"n"	"USA"	"HI"	"MOKUOLA-COCONUT IS, HILO, HAWAII"	19.734	-155.071	10645.494628104549									4.6		5														
		"n"	"USA"	"HI"	"HILO, HAWAII, HI"	19.733	-155.067	10645.097246295973									3.4		5														
		"n"	"USA"	"HI"	"HILO, HAWAII, HI"	19.733	-155.067	10645.097246295973									3		5														
		"n"	"USA"	"HI"	"HILO, HAWAII, HI"	19.733	-155.067	10645.097246295973									3.4		5														
		"n"	"USA"	"HI"	"HILO, HAWAII, HI"	19.733	-155.067	10645.097246295973									3.7		5														
		"n"	"USA"	"HI"	"HILO, HAWAII, HI"	19.733	-155.067	10645.097246295973									3.7		5														
		"n"	"USA"	"HI"	"HILO, HAWAII, HI"	19.733	-155.067	10645.097246295973									4		5														
		"n"	"USA"	"HI"	"HILO, HAWAII, HI"	19.733	-155.067	10645.097246295973									4.9		5														
		"n"	"USA"	"HI"	"HILO, HAWAII, HI"	19.733	-155.067	10645.097246295973									4.3		5														
		"n"	"USA"	"HI"	"HILO, HAWAII, HI"	19.733	-155.067	10645.097246295973									3		5														
		"n"	"USA"	"HI"	"HILO, HAWAII, HI"	19.733	-155.067	10645.097246295973									4		5														
		"n"	"USA"	"HI"	"HILO, HAWAII, HI"	19.733	-155.067	10645.097246295973									2.1		5														
		"n"	"USA"	"HI"	"NORTHEAST COAST HAWAII, HI"	19.728	-154.997	10639.00306687429									2.1		5														
		"n"	"USA"	"HI"	"HONOLULU LANDING, HAWAII, HI"	19.559	-154.882	10617.925843593606									4.3		5														
		"n"	"USA"	"HI"	"KAPOHO POINT, HAWAII, HI"	19.5	-154.821	10608.85027807294									0.9		5														
		"n"	"USA"	"HI"	"POHOIKI, HAWAII, HI"	19.46	-154.846	10608.15003135241									1.8		5														
		"n"	"USA"	"HI"	"OPIHIKAO, HAWAII, HI"	19.427	-154.886	10609.166099337137									1.8		5														
		"n"	"USA"	"HI"	"KAIMU, HAWAII, HI"	19.361	-154.972	10611.696370893622									4		5														
		"n"	"USA"	"HI"	"KALAPANA, HAWAII, HI"	19.353	-154.977	10611.557160300574									2.1		5														
		"n"	"USA"	"HI"	"KEAOI ISLAND, HAWAII, HI"	19.272	-155.257	10629.043819998666									1.5		5														
		"n"	"USA"	"HI"	"PUUNALUU, HAWAII, HI"	19.139	-155.5	10639.950141580313									3.4		5														
		"n"	"USA"	"HI"	"NINOLE, HAWAII, HI"	19.133	-155.51	10640.363714601095									2.7		5														
		"n"	"USA"	"HI"	"HONUAPO, HAWAII, HI"	19.089	-155.55	10640.64629099459									5.2		5														
		"n"	"USA"	"HI"	"KAIOLE BAY, HAWAII, HI"	18.971	-155.608	10637.340281209876									3.7		5														
		"n"	"USA"	"HI"	"KAALUALU BAY, HAWAII, HI"	18.969	-155.613	10637.616246724621									5.2		5														
		"n"	"USA"	"HI"	"KAALUALU BAY, HAWAII, HI"	18.974	-155.616	10638.20722340455									3.4		5														
		"n"	"USA"	"HI"	"KAALUALU BAY, HAWAII, HI"	18.972	-155.621	10638.48320207395									5.2		5														
		"n"	"USA"	"HI"	"SOUTHEAST COAST HAWAII, HI"	18.956	-155.628	10637.963979367996									2.7		5														
		"n"	"USA"	"HI"	"SOUTHEAST COAST HAWAII, HI"	18.946	-155.635	10637.85647327303									3		5														
		"n"	"USA"	"HI"	"SOUTHEAST COAST HAWAII, HI"	18.939	-155.642	10637.954840726923									2.7		5														
		"n"	"USA"	"HI"	"SOUTHEAST COAST HAWAII, HI"	18.932	-155.651	10638.218587983192									4.3		5														
		"n"	"USA"	"HI"	"SOUTHEAST COAST HAWAII, HI"	18.928	-155.656	10638.357521913793									4.3		5														
		"n"	"USA"	"HI"	"SOUTHEAST COAST HAWAII, HI"	18.924	-155.661	10638.496477550083									4.9		5														
		"n"	"USA"	"HI"	"SOUTHEAST COAST HAWAII, HI"	18.922	-155.666	10638.772648833661									4.3		5														
		"n"	"USA"	"HI"	"SOUTHEAST COAST HAWAII, HI"	18.92	-155.667	10638.718130342457									4.3		5														
		"n"	"USA"	"HI"	"SOUTHEAST COAST HAWAII, HI"	18.916	-155.674	10639.022490495297									5.2		5														
		"n"	"USA"	"HI"	"KALAE, HAWAII, HI"	18.914	-155.682	10639.546752088982									3.7		5														
		"n"	"USA"	"HI"	"SOUTHWEST COAST HAWAII, HI"	18.931	-155.686	10641.043494182646									4		5														
		"n"	"USA"	"HI"	"OKOE BAY, HAWAII, HI"	19.149	-155.914	10674.831096892569									4		5														
		"n"	"USA"	"HI"	"MILOII, HAWAII, HI"	19.182	-155.911	10676.84263013869									0.9		5														
		"n"	"USA"	"HI"	"HOOKENA, HAWAII, HI"	19.38	-155.899	10689.406117934024									2.1		5														
		"n"	"USA"	"HI"	"HONAUNAU BAY, HAWAII, HI"	19.426	-155.915	10693.87531596444									1.5		5														
		"n"	"USA"	"HI"	"NAPOOPOO, HAWAII, HI"	19.475	-155.923	10697.888758322391									4.9		5														
		"n"	"USA"	"HI"	"KEAUHOU BAY, HAWAII, HI"	19.564	-155.967	10707.608212174568									3.7		5														
		"n"	"USA"	"HI"	"KAHALUU BAY, HAWAII, HI"	19.581	-155.971	10709.100950713537									3		5														
		"n"	"USA"	"HI"	"HOLUALOA BAY, HAWAII, HI"	19.605	-155.979	10711.40229745581									2.4		5														
		"n"	"USA"	"HI"	"KAILUA-KONA, HAWAII, HI"	19.63	-155.99	10714.019270850638									2.4		5														
		"n"	"USA"	"HI"	"KAWAIHAE, HAWAII, HI"	20.036	-155.832	10728.768116475576									2.7		5														
		"n"	"USA TERRITORY"	"AS"	"PAGO PAGO, AMERICAN SAMOA"	-14.274	-170.703	9666.758290371226	23	7	33	12	22				2.4		1									0.05	1	1	1	1	1
		"n"	"JAPAN"	"AICHI"	"FUKUE"	34.633	137.1	17272.665331138036											2														
		"n"	"JAPAN"	"AICHI"	"KATAHARA"	34.783	137.183	17270.23603565402											2														
		"n"	"JAPAN"	"AICHI"	"KONAKAYAMA"	34.65	137.083	17274.70878170627											1														
		"n"	"JAPAN"	"AICHI"	"MAESHIBA"	34.783	137.333	17257.09099176849											2														
		"n"	"JAPAN"	"AICHI"	"MOROZAKI"	34.7	136.983	17285.09446717671											2														
		"n"	"JAPAN"	"AICHI"	"NAGOYA"	35.083	136.883	17305.945418930714									0.89		2														
		"n"	"JAPAN"	"AOMORI"	"AOMORI"	40.833	140.767	17086.68104389432									0.71		2														
		"n"	"JAPAN"	"AOMORI"	"ASAMUSHI"	40.9	140.867	17078.95412242753									0.15		2														
		"n"	"JAPAN"	"AOMORI"	"FUTAKAWAME"	40.65	141.45	17027.295352419846									1		1														
		"n"	"JAPAN"	"AOMORI"	"HACHINOHE"	40.533	141.533	17018.938702380092									3.77		1														
		"n"	"JAPAN"	"AOMORI"	"HACHINOHE"	40.533	141.533	17018.938702380092									2.91		2														
		"n"	"JAPAN"	"AOMORI"	"HACHINOHE (KENSETSUKYOKU)"	40.517	141.517	17020.094695399035											2														
		"n"	"JAPAN"	"AOMORI"	"HACHITARO"	40.533	141.5	17021.71842277139									2.2		1														
		"n"	"JAPAN"	"AOMORI"	"HASHIMUKAI"	40.583	141.483	17023.741741629172									1.5		1														
		"n"	"JAPAN"	"AOMORI"	"HIRANUMAHAMA"	40.883	141.4	17034.053282623707									2.2		1														
		"n"	"JAPAN"	"AOMORI"	"HITOKAWAME"	40.633	141.45	17027.100252390243									1.2		1														
		"n"	"JAPAN"	"AOMORI"	"HOUSHIHAMA"	40.5	141.633	17010.11571564157									2.1		1														
		"n"	"JAPAN"	"AOMORI"	"ICHIKAWANAKADAIRA"	40.583	141.467	17025.08878280953									1.8		1														
		"n"	"JAPAN"	"AOMORI"	"IRIGUCHI"	41.35	141.333	17044.129793126085									1.8		1														
		"n"	"JAPAN"	"AOMORI"	"ITSUKAWAME"	40.717	141.433	17029.482630114995									2.3		1														
		"n"	"JAPAN"	"AOMORI"	"IWASAKI"	40.583	139.917	17155.673057563847									0.05		2														
		"n"	"JAPAN"	"AOMORI"	"KAWADAI"	41.367	141.2	17055.371110323795									1.2		1														
		"n"	"JAPAN"	"AOMORI"	"KAWAMORI"	41.267	141.15	17058.685014203285									1.8		1														
		"n"	"JAPAN"	"AOMORI"	"KAWAUCHI"	41.2	140.983	17072.05134346427									0.9		1														
		"n"	"JAPAN"	"AOMORI"	"KINOBE"	41.433	141.133	17061.50416687555									2.3		1														
		"n"	"JAPAN"	"AOMORI"	"KISOBE"	41.433	141.133	17061.50416687555											1														
		"n"	"JAPAN"	"AOMORI"	"KITANUMA"	40.55	141.5	17021.920807774743									1.7		1														
		"n"	"JAPAN"	"MIYAGI"	"KODOMARI"	41.133	140.3	17128.618942297024									0.6		1														
		"n"	"JAPAN"	"AOMORI"	"KOFUNATO"	40.45	141.683	17005.28662640208									3.7		1														
		"n"	"JAPAN"	"AOMORI"	"MAGOJIROMA"	41.417	141.167	17058.539221921725									2.1		1														
		"n"	"JAPAN"	"AOMORI"	"MIKAWAME"	40.667	141.433	17028.919265458797									1.3		1														
		"n"	"JAPAN"	"IWATE"	"MINATO"	41.4	141.167	17058.399196066395									0.95		1														
		"n"	"JAPAN"	"AOMORI"	"MINMAYA"	41.2	140.433	17118.047933055303									1.2		1														
		"n"	"JAPAN"	"AOMORI"	"MUKAWAME"	40.767	141.417	17031.380717964785									2		1														
		"n"	"JAPAN"	"AOMORI"	"MYOJIN"	40.6	141.467	17025.287400504436									3.2		1														
		"n"	"JAPAN"	"AOMORI"	"NIMAIBASHI"	41.417	141.167	17058.539221921725									2.2		1														
		"n"	"JAPAN"	"AOMORI"	"NOHEJI"	40.867	141.117	17057.637403183882									1.7		1														
		"n"	"JAPAN"	"AOMORI"	"OBUCHIHAMA"	40.967	141.383	17036.347073650908									1		1														
		"n"	"JAPAN"	"AOMORI"	"OHATA"	41.4	141.167	17058.399196066395									1.8		1														
		"n"	"JAPAN"	"AOMORI"	"OJA"	40.467	141.65	17008.278626384596									2.7		1														
		"n"	"JAPAN"	"AOMORI"	"OKKOSHI"	40.467	141.667	17006.84579211296									3		1														
		"n"	"JAPAN"	"AOMORI"	"OKUKI"	40.483	141.633	17009.907989777887									1.7		1														
		"n"	"JAPAN"	"AOMORI"	"OMINATO"	41.25	141.15	17058.535388096094	22	20	15	25	4				1.32		2	125	"F"												
		"n"	"JAPAN"	"AOMORI"	"OMINATOSHINMACHI"	41.283	141.167	17057.405042698185									1.78		2														
		"n"	"JAPAN"	"AOMORI"	"SAI"	41.433	140.867	17083.6797905895									1		1														
		"n"	"JAPAN"	"AOMORI"	"SAKAKI"	40.45	141.667	17006.635407171194									2.7		1														
		"n"	"JAPAN"	"AOMORI"	"SAMEKO"	40.533	141.55	17017.50675815722									3.79		1														
		"n"	"JAPAN"	"AOMORI"	"SEKINENAYA"	41.367	141.233	17052.618110368436									1.6		1														
		"n"	"JAPAN"	"AOMORI"	"SHOTSUGAWA"	41.383	141.183	17056.92348983358									1.3		1														
		"n"	"JAPAN"	"AOMORI"	"TANABU"	41.283	141.183	17056.068804002323									1.8		1														
		"n"	"JAPAN"	"AOMORI"	"TANESASHI"	40.5	141.617	17011.463817066477									4.2		1														
		"n"	"JAPAN"	"AOMORI"	"TSURIYAHAMA"	41.417	141.15	17059.956593512776											1														
		"n"	"JAPAN"	"AOMORI"	"YOKAWAME"	40.7	141.433	17029.292158305838									1.9		1														
		"n"	"JAPAN"	"AOMORI"	"YOKOHAMA (AOMORI)"	41.083	141.25	17048.633975300058									1.1		1														
		"n"	"JAPAN"	"CHIBA"	"AMO"	35.217	139.883	17047.433013932754									2.2		1														
		"n"	"JAPAN"	"CHIBA"	"CHIBAKO"	35.6	140.1	17040.01124295166									0.58		2														
		"n"	"JAPAN"	"CHIBA"	"CHOSHI"	35.75	140.867	16977.44251197989									1.5		2														
		"n"	"JAPAN"	"CHIBA"	"HEDATE"	34.95	139.967	17031.727662240213									0.9		1														
		"n"	"JAPAN"	"CHIBA"	"ICHINOMIYA"	35.383	140.4	17007.306057351983									2		1														
		"n"	"JAPAN"	"CHIBA"	"INOOKA"	35.683	140.733	16987.17644026637									3.5		1														
		"n"	"JAPAN"	"CHIBA"	"KAMOGAWA"	35.1	140.1	17024.819490568574									1.5		1														
		"n"	"JAPAN"	"CHIBA"	"KANAYAKO"	35.167	139.833	17050.261873633546									1.25		1														
		"n"	"JAPAN"	"CHIBA"	"KATSUURA (KATSUURASHI)"	35.15	140.317	17007.39935444947									2.5		1														
		"n"	"JAPAN"	"CHIBA"	"KISARAZU"	35.383	139.917	17049.5255850192									1		1														
		"n"	"JAPAN"	"CHIBA"	"KUJUKURICHO"	35.517	140.45	17006.972007421173									3		1														
		"n"	"JAPAN"	"CHIBA"	"MERA"	34.9189	139.825	17043.166108821057									1.21		2														
		"n"	"JAPAN"	"CHIBA"	"NAARAI"	35.7	140.833	16978.946774530283											2														
		"n"	"JAPAN"	"CHIBA"	"NAGAURA"	35.45	139.983	17045.773542606028									0.32		2														
		"n"	"JAPAN"	"CHIBA"	"OHARAKO"	35.25	140.4	17003.239351177755									3		1														
		"n"	"JAPAN"	"CHIBA"	"SHIRAHAMA, CHIBA"	34.9	139.9	17035.998522591326									1		1														
		"n"	"JAPAN"	"CHIBA"	"SHIRAKO"	35.45	140.4	17009.331002360403									2.5		1														
		"n"	"JAPAN"	"CHIBA"	"TATEYAMA"	34.983	139.85	17043.01338008627									1.5		1														
		"n"	"JAPAN"	"CHIBA"	"TOKAWA"	35.7	140.85	16977.462996845632									2.14		1														
		"n"	"JAPAN"	"CHIBA"	"WADA"	35.033	140.017	17029.97823856104									0.7		1														
		"n"	"JAPAN"	"CHIBA"	"WADAGAWA"	35.733	140.833	16979.91318060764									0.78		2														
		"n"	"JAPAN"	"EHIME"	"UWAJIMA"	33.233	132.55	17621.21658201593									0.83		2														
		"n"	"JAPAN"	"EHIME"	"WAKIMOTO"	32.917	132.65	17599.96050924092									2		1														
		"n"	"JAPAN"	"FUKUI"	"OBAMA"	35.5	135.75	17417.656251223398									0.22		2														
		"n"	"JAPAN"	"FUKUI"	"TSURUGAKO (KEN)"	35.65	136.25	17378.170597243785									0.31		2														
		"n"	"JAPAN"	"FUKUOKA"	"HAKATA (KENSETSUKYOKU)"	33.617	130.417	17822.015440322386									0.38		2														
		"n"	"JAPAN"	"FUKUOKA"	"YAHATAHAMA (WAKAMATSU)"	33.917	130.817	17798.330452545626									0.52		2														
		"n"	"JAPAN"	"FUKUSHIMA"	"ENA"	36.967	140.967	17001.635294271364									3		1														
		"n"	"JAPAN"	"FUKUSHIMA"	"HISANOHAMA"	37.133	141	17002.851669470943									2.8		1														
		"n"	"JAPAN"	"FUKUSHIMA"	"KOKOZURA"	36.85	140.8	17013.204597530916									3		1														
		"n"	"JAPAN"	"FUKUSHIMA"	"NAKOSO"	36.883	140.8	17014.034690566838											2														
		"n"	"JAPAN"	"FUKUSHIMA"	"ONAHAMA"	36.933	140.9	17006.603676195027									1.71		2														
		"n"	"JAPAN"	"FUKUSHIMA"	"SOMAKO"	37.817	140.95	17022.919513284058									0.8		2														
		"n"	"JAPAN"	"FUKUSHIMA"	"TSURUSHI"	37.867	140.933	17025.469297526342									1.5		1														
		"n"	"JAPAN"	"FUKUSHIMA"	"UKEDO"	37.483	141.05	17006.799491248436									2		1														
		"n"	"JAPAN"	"HIROSHIMA"	"KURE"	34.233	132.55	17658.018506968547									0.35		2														
		"n"	"JAPAN"	"HIROSHIMA"	"ONOMICHI"	34.4	133.2	17606.790371798943											2														
		"n"	"JAPAN"	"HOKKAIDO"	"ABASHIRI"	44.017	144.283	16816.83391009102									0.46		2														
		"n"	"JAPAN"	"HOKKAIDO"	"ABUTA"	42.55	140.767	17098.16999833047									1		1														
		"n"	"JAPAN"	"HOKKAIDO"	"AIKAPPUZAKI"	43.017	144.833	16768.063001992938									3.4		1														
		"n"	"JAPAN"	"HOKKAIDO"	"AKKESHI"	43.033	144.85	16766.782220167428									1.8		1														
		"n"	"JAPAN"	"HOKKAIDO"	"ARAKAWAKAKO"	43.083	145.117	16745.391138474086									3.4		1														
		"n"	"JAPAN"	"HOKKAIDO"	"ARIKAWASANBASHI"	41.82	140.653	17104.164733092075									1.4		1														
		"n"	"JAPAN"	"HOKKAIDO"	"ATSUGA"	42.433	142.217	16978.546100918644									1.9		1														
		"n"	"JAPAN"	"HOKKAIDO"	"ATSUNAI"	42.8	143.817	16849.553199581416									1.5		1														
		"n"	"JAPAN"	"HOKKAIDO"	"BIWASE"	43.05	145.083	16747.938947293027									2		1														
		"n"	"JAPAN"	"HOKKAIDO"	"BOKIBETSU"	43.083	145.117	16745.391138474086									4.2		1														
		"n"	"JAPAN"	"HOKKAIDO"	"ERIMOMISAKI"	41.917	143.25	16889.74120875341									2		1														
		"n"	"JAPAN"	"HOKKAIDO"	"ESASHIKO"	44.95	142.583	16951.486701449867									0.4		2														
		"n"	"JAPAN"	"MIYAZAKI"	"FUKUSHIMA"	41.483	140.267	17134.06830650626									1.49		1														
		"n"	"JAPAN"	"HOKKAIDO"	"FUYUSHIMA"	42.1	142.983	16913.278988280246									2.7		1														
		"n"	"JAPAN"	"HOKKAIDO"	"HABOMAI"	43.333	145.767	16694.279851929252									1.7		1														
		"n"	"JAPAN"	"HOKKAIDO"	"HABOROKO"	44.367	141.7	17023.272640537234									0.75		2														
		"n"	"JAPAN"	"HOKKAIDO"	"HAKODATE"	41.7187	140.7247	17097.574380666054	22	18	38	23	27				2.07		2	30	"F"												
		"n"	"JAPAN"	"HOKKAIDO"	"HAMAATSUMA"	42.6	141.817	17012.207911998783									3		1														
		"n"	"JAPAN"	"HOKKAIDO"	"HAMAMASU"	43.617	141.4	17048.333976057893									0.3		2														
		"n"	"JAPAN"	"YAMAGATA"	"HAMANAKA"	43.117	145.117	16745.611196920203									4.3		1														
		"n"	"JAPAN"	"HOKKAIDO"	"HAMATAIKI"	42.433	143.417	16879.955526620102									2		1														
		"n"	"JAPAN"	"HOKKAIDO"	"HANASAKI"	43.2781	145.5678	16710.062813539706									1.7		2														
		"n"	"JAPAN"	"HOKKAIDO"	"HARAKI"	41.728	141.083	17067.87787001225									1.4		1														
		"n"	"JAPAN"	"HOKKAIDO"	"HARUTACHI"	42.267	142.5	16954.272642708587									1.8		1														
		"n"	"JAPAN"	"HOKKAIDO"	"HICHIRIPPU"	43.033	145.033	16751.893750910585									3		1														
		"n"	"JAPAN"	"HOKKAIDO"	"HIGASHIHAMA"	41.721	141.021	17072.97864263157									1.5		1														
		"n"	"JAPAN"	"HOKKAIDO"	"HIGASHISHIZUNAI"	42.3	142.45	16958.599340293847									1.8		1														
		"n"	"JAPAN"	"HOKKAIDO"	"HIROO"	42.45	143.383	16882.863510813884									2.8		1														
		"n"	"JAPAN"	"HOKKAIDO"	"HIURA"	41.734	141.053	17070.41028698326									1.4		1														
		"n"	"JAPAN"	"HOKKAIDO"	"HOROBETSU"	42.4	141.117	17068.83503097643									0.6		1														
		"n"	"JAPAN"	"HOKKAIDO"	"HOROIZUMI"	42.017	143.15	16898.8393463756									2.8		1														
		"n"	"JAPAN"	"HOKKAIDO"	"HOROMANBETSU (KUSHIRO)"	42.983	144.9	16762.387329157693									2.5		1														
		"n"	"JAPAN"	"HOKKAIDO"	"IZUMISAWA"	41.701	140.633	17105.077554491632									2.1		1														
		"n"	"JAPAN"	"HOKKAIDO"	"KAMAYAGYOKO"	41.731	140.939	17079.85664047284									1.2		1														
		"n"	"JAPAN"	"HOKKAIDO"	"KAMAYA-SHIRAHAMA"	41.723	140.948	17079.055184932484									1.5		1														
		"n"	"JAPAN"	"HOKKAIDO"	"KAMIISO"	41.816	140.639	17105.301976418225									1.9		1														
		"n"	"JAPAN"	"HOKKAIDO"	"KIKONAI"	41.687	140.448	17120.362240205264									1.5		1														
		"n"	"JAPAN"	"HOKKAIDO"	"KIRITAPPU"	43.083	145.133	16744.09050032087									4.3		1														
		"n"	"JAPAN"	"HOKKAIDO"	"KOJOUHAMA"	42.467	141.217	17060.89650305577									1		1														
		"n"	"JAPAN"	"HOKKAIDO"	"KONBUMORI"	42.95	144.533	16792.06493315632									1		1														
		"n"	"JAPAN"	"HOKKAIDO"	"KUSHIRO"	42.9756	144.3714	16805.387493402315									3.05		2														
		"n"	"JAPAN"	"HOKKAIDO"	"KUSHIRO (KUSHIRO CITY)"	42.983	144.383	16804.487265287295									5.4		1														
		"n"	"JAPAN"	"HOKKAIDO"	"KUTSUGATAKO"	45.183	141.15	17063.05561621271									0.13		2														
		"n"	"JAPAN"	"HOKKAIDO"	"MATSUMAE"	41.417	140.1	17147.531970390788									0.5		2														
		"n"	"JAPAN"	"HOKKAIDO"	"MENAGAWA"	41.76	141.087	17067.764679376454									0.8		1														
		"n"	"JAPAN"	"HOKKAIDO"	"MITSUISHI"	42.25	142.567	16948.643089761383									1.4		1														
		"n"	"JAPAN"	"HOKKAIDO"	"MOCHIRIPPU"	43.017	145.033	16751.787618793947									2		1														
		"n"	"JAPAN"	"HOKKAIDO"	"MOHEJI"	41.76	140.606	17107.69642497965									1.9		1														
		"n"	"JAPAN"	"HOKKAIDO"	"MOMBETSU"	44.35	143.367	16890.41264332698									0.51		2														
		"n"	"JAPAN"	"HOKKAIDO"	"MOMBETSU (MOMBETSUCHO)"	42.467	142.083	16989.738362850778									1.7		1														
		"n"	"JAPAN"	"HOKKAIDO"	"MONSHIZU"	43.05	144.783	16772.340415591207									4.1		1														
		"n"	"JAPAN"	"HOKKAIDO"	"MORIKO"	42.1	140.6	17110.085495354528									1.63		2														
		"n"	"JAPAN"	"HOKKAIDO"	"MOTOSHIZUNAI"	42.333	142.367	16965.634031205846									1.8		1														
		"n"	"JAPAN"	"HOKKAIDO"	"MUKAWA"	42.567	141.917	17003.857275589875									0.3		1														
		"n"	"JAPAN"	"HOKKAIDO"	"MURORAN"	42.35	140.95	17082.363728885794									1		2														
		"n"	"JAPAN"	"HOKKAIDO"	"NAKAHAMA (OSHIMASHICHO)"	41.75	141.077	17068.52685476376									1.4		1														
		"n"	"JAPAN"	"HOKKAIDO"	"NAKANOHAMA"	43.067	145.1	16746.668460933157									3.1		1														
		"n"	"JAPAN"	"HOKKAIDO"	"NEMUROKO"	43.35	145.583	16709.283154688816									0.34		2														
		"n"	"JAPAN"	"HOKKAIDO"	"OCHIISHIKO"	43.167	145.517	16713.454987648558									2.9		1														
		"n"	"JAPAN"	"HOKKAIDO"	"OINAOSHIHAMA"	42.3	140.983	17079.424445099									1.6		1														
		"n"	"JAPAN"	"HOKKAIDO"	"OKISHI"	42.583	140.65	17107.877474587258									1		1														
		"n"	"JAPAN"	"HOKKAIDO"	"OMA"	41.744	141.075	17068.65198254253									1.1		1														
		"n"	"JAPAN"	"HOKKAIDO"	"ONBETSU"	42.883	143.95	16839.188357607505									2.5		1														
		"n"	"JAPAN"	"HOKKAIDO"	"OSHAMANBE"	42.583	140.381	17129.95243080395									1.5		1														
		"n"	"JAPAN"	"HOKKAIDO"	"OSHIRABETSU"	42.217	143.317	16886.625095698066									2.2		1														
		"n"	"JAPAN"	"HOKKAIDO"	"OSHORO"	43.2	140.867	17091.3477039996									0.1		2														
		"n"	"JAPAN"	"HOKKAIDO"	"OTSU"	42.683	143.65	16862.49110070111									3		1														
		"n"	"JAPAN"	"HOKKAIDO"	"POROTO"	43.133	145.15	16743.032759210946									3		1														
		"n"	"JAPAN"	"HOKKAIDO"	"REBUN"	42.567	140.6	17111.932611180244									1.7		1														
		"n"	"JAPAN"	"HOKKAIDO"	"SAKAKIMACHI"	43.117	145.117	16745.611196920203									3.7		1														
		"n"	"JAPAN"	"HOKKAIDO"	"SAMANI"	42.117	142.933	16917.53307578514									2.2		1														
		"n"	"JAPAN"	"HOKKAIDO"	"SAWARA"	42.117	140.683	17103.310557911063											2														
		"n"	"JAPAN"	"HOKKAIDO"	"SENPOSHI"	42.983	144.733	16775.984899649822									2.5		1														
		"n"	"JAPAN"	"HOKKAIDO"	"SENPOSHIGYOKO"	45.083	141.183	17061.09653885385									0.13		2														
		"n"	"JAPAN"	"HOKKAIDO"	"SEPPU"	42.383	142.283	16972.83917285955									1.6		1														
		"n"	"JAPAN"	"HOKKAIDO"	"SETARAI"	41.714	140.984	17076.003803253345									2		1														
		"n"	"JAPAN"	"HOKKAIDO"	"SHADAI"	42.567	141.417	17044.88175518839									0.4		1														
		"n"	"JAPAN"	"HOKKAIDO"	"SHIKABE"	42.033	140.833	17090.476871890027									0.7		2														
		"n"	"JAPAN"	"HOKKAIDO"	"SHINORI"	41.765	140.818	17090.127529759717									2.1		1														
		"n"	"JAPAN"	"HOKKAIDO"	"SHINRYU"	43.05	144.85	16766.890366624288									3.9		1														
		"n"	"JAPAN"	"HOKKAIDO"	"SHIRANUKA"	42.95	144.083	16828.733660264854									4		1														
		"n"	"JAPAN"	"HOKKAIDO"	"SHIRISHIZU"	43.133	145.133	16744.413674163352									3.6		1														
		"n"	"JAPAN"	"HOKKAIDO"	"SHIZUKARI"	42.588	140.473	17122.416411974627									1.7		1														
		"n"	"JAPAN"	"HOKKAIDO"	"SHIZUNAI"	42.333	142.367	16965.634031205846									1.8		1														
		"n"	"JAPAN"	"HOKKAIDO"	"SHORO"	42.983	144.15	16823.464908663616											1														
		"n"	"JAPAN"	"HOKKAIDO"	"SHOYA"	42.033	143.3	16886.58016634657									2.5		1														
		"n"	"JAPAN"	"HOKKAIDO"	"TAKEURA"	42.483	141.267	17056.854493840114									0.4		1														
		"n"	"JAPAN"	"HOKKAIDO"	"TOBETSU"	41.737	140.58	17109.71122624699									1.7		1														
		"n"	"JAPAN"	"HOKKAIDO"	"TODOHOKKE"	41.833	141.15	17063.025076768517									0.6		2														
		"n"	"JAPAN"	"HOKKAIDO"	"TOFUTSU"	43.083	145.15	16742.70858652275									2.5		1														
		"n"	"JAPAN"	"HOKKAIDO"	"TOKACHIBUTO"	42.717	143.717	16857.220992677514									2		1														
		"n"	"JAPAN"	"HOKKAIDO"	"TOKOTAN"	43	144.867	16765.185606126764									1.8		1														
		"n"	"JAPAN"	"HOKKAIDO"	"TOMAKOMAINISHIKO"	42.633	141.617	17028.743766966152									2.1		1														
		"n"	"JAPAN"	"HOKKAIDO"	"TOMARI (HOKKAIDO)"	41.716	141.006	17074.1901752011									1.3		1														
		"n"	"JAPAN"	"HOKKAIDO"	"TOMIHAMA"	42.5	142.017	16995.327372346812									2.7		1														
		"n"	"JAPAN"	"HOKKAIDO"	"TOMIURA"	42.433	141.167	17064.86379449125									2		1														
		"n"	"JAPAN"	"HOKKAIDO"	"TOYOURA"	42.583	140.717	17102.37952284942									1.7		1														
		"n"	"JAPAN"	"HOKKAIDO"	"URAKAWA"	42.167	142.767	16931.59071204173									1.53		2		"R"												
		"n"	"JAPAN"	"HOKKAIDO"	"USU"	42.517	140.783	17096.744832733348									1.5		1														
		"n"	"JAPAN"	"HOKKAIDO"	"UTOROKO"	44.067	145	16759.512542423225											2														
		"n"	"JAPAN"	"HOKKAIDO"	"WASHIBETSU"	42.35	141.05	17074.130582244372									0.4		1														
		"n"	"JAPAN"	"HOKKAIDO"	"WATARICHIRIPPU"	43.033	145.067	16749.12777425791									2		1														
		"n"	"JAPAN"	"HOKKAIDO"	"YACHI"	41.746	140.903	17082.946232443843									2		1														
		"n"	"JAPAN"	"HOKKAIDO"	"YOROCHIRIPPU"	43.033	145.05	16750.51075518008									2		1														
		"n"	"JAPAN"	"HOKKAIDO"	"ZENIKAMESAWA"	41.753	140.875	17085.317223666425									1.4		1														
		"n"	"JAPAN"	"HYOGO"	"ANAGA"	34.267	134.667	17473.74110265193									0.4		1														
		"n"	"JAPAN"	"HYOGO"	"FUKURA"	34.25	134.717	17468.779090392334									0.96		1														
		"n"	"JAPAN"	"HYOGO"	"GUNKE"	34.467	134.85	17464.435764990987									0.2		1														
		"n"	"JAPAN"	"HYOGO"	"KOBE"	34.683	135.183	17442.326532229727									0.28		2														
		"n"	"JAPAN"	"HYOGO"	"MARUYAMA"	34.283	134.667	17474.286112848236									0.5		1														
		"n"	"JAPAN"	"HYOGO"	"SUMOTO"	34.333	134.9	17455.56122833058									0.7		2														
		"n"	"JAPAN"	"HYOGO"	"TORIKAI"	34.367	134.75	17469.855179194743									0.4		1														
		"n"	"JAPAN"	"HYOGO"	"TSUI"	34.333	134.7	17473.090135874358									0.1		1														
		"n"	"JAPAN"	"IBARAKI"	"AKASHI"	36	140.667	17002.064675857724									2		1														
		"n"	"JAPAN"	"IBARAKI"	"HIRAISO"	36.35	140.617	17016.07822272595									1.25		1														
		"n"	"JAPAN"	"IBARAKI"	"HIRAKATA"	36.85	140.8	17013.204597530916									2.5		1														
		"n"	"JAPAN"	"IBARAKI"	"ISOHAMA"	36.317	140.583	17018.147903052835									1.25		1														
		"n"	"JAPAN"	"IBARAKI"	"ISOZAKI"	36.383	140.633	17015.572651952112									1.5		1														
		"n"	"JAPAN"	"IWATE"	"KUJI"	36.5	140.617	17020.080230235948									3		1														
		"n"	"JAPAN"	"IBARAKI"	"MINATO-OHASHI"	36.333	140.583	17018.580365164813									1		2														
		"n"	"JAPAN"	"IBARAKI"	"NAKAMINATO"	36.333	140.59	17017.970773510657									1		1														
		"n"	"JAPAN"	"IBARAKI"	"NATSUMI"	36.283	140.567	17018.619515700953									3		1														
		"n"	"JAPAN"	"IBARAKI"	"OARAIKO"	36.333	140.583	17018.580365164813									1.08		2														
		"n"	"JAPAN"	"IBARAKI"	"OTSU (KITAIBARAKISHI)"	36.833	140.8	17012.775427531018									2.85		1														
		"n"	"JAPAN"	"IBARAKI"	"OUSE"	36.567	140.667	17017.49203820758									3		1														
		"n"	"JAPAN"	"IBARAKI"	"TAKEIGAMA"	36.067	140.617	17008.306664678294									2		1														
		"n"	"JAPAN"	"ISHIKAWA"	"NANAOKO"	37.05	136.967	17351.330697607184									0.3		1														
		"n"	"JAPAN"	"IWATE"	"AKAHAMA"	39.35	141.933	16968.041560959486									3.4		1														
		"n"	"JAPAN"	"IWATE"	"AKAMAE"	39.583	141.967	16968.95122873923									4.5		1														
		"n"	"JAPAN"	"IWATE"	"ANDO"	39.35	141.917	16969.40497082003									4		1														
		"n"	"JAPAN"	"IWATE"	"ANEYOSHI"	39.533	142.05	16961.091125188992									1.3		1														
		"n"	"JAPAN"	"IWATE"	"ATTARI"	39.033	141.767	16976.736175758422									1.3		1														
		"n"	"JAPAN"	"IWATE"	"CHIKEI-KITAGAWA"	39.533	142.033	16962.53711106956									2.8		1														
		"n"	"JAPAN"	"IWATE"	"FUDAI"	40.017	141.9	16981.17930235761									2.4		1														
		"n"	"JAPAN"	"IWATE"	"HAKOZAKI"	39.317	141.917	16968.85091361269									3.2		1														
		"n"	"JAPAN"	"IWATE"	"HEITA"	39.25	141.9	16969.16362794468									3		1														
		"n"	"JAPAN"	"IWATE"	"HEIZAWA"	39.65	142.017	16965.760406837373									2.4		1														
		"n"	"JAPAN"	"IWATE"	"HIRAIGA"	39.933	141.95	16975.73297588252									1		1														
		"n"	"JAPAN"	"IWATE"	"HONGO (KAMAISHI)"	39.2	141.9	16968.30481738575									2		1														
		"n"	"JAPAN"	"IWATE"	"HORINAI"	40.05	141.867	16984.44037910763									5		1														
		"n"	"JAPAN"	"IWATE"	"HORINAI (MIYAKO)"	39.6	141.967	16969.221138873243									1.7		1														
		"n"	"JAPAN"	"IWATE"	"HOSOURA"	39.017	141.717	16980.725268211052									2.3		1														
		"n"	"JAPAN"	"IWATE"	"IMAIZUMI"	39	141.617	16988.97219098567									4.9		1														
		"n"	"JAPAN"	"IWATE"	"ISHIHAMA (MIYAKO)"	39.517	142.033	16962.278303721625									2.5		1														
		"n"	"JAPAN"	"IWATE"	"JODOGAHAMA"	39.65	141.983	16968.649290412042									1.3		1														
		"n"	"JAPAN"	"IWATE"	"KADONOHAMA"	40.45	141.683	17005.28662640208									2.4		1														
		"n"	"JAPAN"	"IWATE"	"KAMAISHI"	39.267	141.883	16970.903292213996	22	17	35	22	24				0.35		2														
		"n"	"JAPAN"	"IWATE"	"KAMAISHI (KAMAISHI CITY)"	39.267	141.883	16970.903292213996									3.3		1														
		"n"	"JAPAN"	"IWATE"	"KANEHAMA"	39.6	141.95	16970.666335463204									5.3		1														
		"n"	"JAPAN"	"IWATE"	"KAWAJIRIGAWAKAKO"	40.417	141.717	17002.00750068705									3		1														
		"n"	"JAPAN"	"IWATE"	"KAWASHIRO"	39.5	142.017	16963.363661768104									2.7		1														
		"n"	"JAPAN"	"IWATE"	"KIRIKIRI"	39.367	141.95	16966.87725739947									2.9		1														
		"n"	"JAPAN"	"IWATE"	"KOSHIRAHAMA"	39.2	141.867	16971.120779843543									3.8		1														
		"n"	"JAPAN"	"IWATE"	"KOSODE"	40.167	141.85	16987.500513416337									3.8		1														
		"n"	"JAPAN"	"IWATE"	"KUJIKO"	40.2	141.817	16990.737436788884									2.95		2														
		"n"	"JAPAN"	"MIE"	"KUKI"	40.133	141.85	16987.0346682518									4.1		1														
		"n"	"JAPAN"	"IWATE"	"MIKKAICHI"	39	141.683	16983.32898225908									5.5		1														
		"n"	"JAPAN"	"IWATE"	"MIYAKO"	39.65	141.983	16968.649290412042									0.85		2														
		"n"	"JAPAN"	"IWATE"	"MIYAKO (MIYAKO CITY)"	39.633	141.967	16969.74203296755									2		1														
		"n"	"JAPAN"	"IWATE"	"MURONOHAMA"	39.333	141.917	16969.120048693203									3.6		1														
		"n"	"JAPAN"	"IWATE"	"NAKANO"	40.3	141.8	16993.502398472177									3		1														
		"n"	"JAPAN"	"IWATE"	"NAMIITA"	39.383	141.933	16968.592014940008									2.8		1														
		"n"	"JAPAN"	"IWATE"	"NATSUI"	40.217	141.8	16992.402630077217									2.9		1														
		"n"	"JAPAN"	"IWATE"	"NODA"	40.117	141.833	16988.25190127693									5.2		1														
		"n"	"JAPAN"	"IWATE"	"NORINOWAKI"	39.583	141.95	16970.39665912241									4.1		1														
		"n"	"JAPAN"	"IWATE"	"OFUNATO (OFUNATO CITY)"	39.05	141.733	16979.943505723295									5.4		1														
		"n"	"JAPAN"	"IWATE"	"OISHI"	39.183	141.9	16968.010725809712									2.6		1														
		"n"	"JAPAN"	"IWATE"	"OMOTO"	39.85	141.983	16971.71005861207									1		1														
		"n"	"JAPAN"	"IWATE"	"OONO"	38.967	141.7	16981.284227368764									3.1		1														
		"n"	"JAPAN"	"IWATE"	"ORIKASA"	39.45	141.967	16966.80274848648									4		1														
		"n"	"JAPAN"	"IWATE"	"OSABE"	38.983	141.633	16987.300847565544									4.5		1														
		"n"	"JAPAN"	"MIYAGI"	"OSAWA"	39.483	141.983	16965.980255270166									2.7		1														
		"n"	"JAPAN"	"IWATE"	"OTOBE"	39.6	142.033	16963.61062329329									0.6		1														
		"n"	"JAPAN"	"IWATE"	"OTSUCHI"	39.35	141.917	16969.40497082003									3.4		1														
		"n"	"JAPAN"	"IWATE"	"RAGA"	39.933	141.95	16975.73297588252									1		1														
		"n"	"JAPAN"	"IWATE"	"RYOGAE"	39	141.683	16983.32898225908									5.9		1														
		"n"	"JAPAN"	"IWATE"	"RYOISHI"	39.3	141.9	16970.013231315505									3.7		1														
		"n"	"JAPAN"	"IWATE"	"RYORIKO"	39.033	141.8	16973.915783292825									3.3		1														
		"n"	"JAPAN"	"IWATE"	"SAMURAIHAMAAZAYOKONUMA"	40.267	141.267	17038.094626824335									1.3		1														
		"n"	"JAPAN"	"IWATE"	"SATO"	39.567	142.033	16963.083945783404									1.4		1														
		"n"	"JAPAN"	"IWATE"	"SETTAI"	39.817	141.983	16971.215236705157									1		1														
		"n"	"JAPAN"	"IWATE"	"SHIMANOKOSHI"	39.917	141.95	16975.498942782186									1		1														
		"n"	"JAPAN"	"IWATE"	"SHINDEN"	39.067	141.733	16980.243803556055									4.3		1														
		"n"	"JAPAN"	"IWATE"	"SHIRAHAMA (MIYAKO CITY)"	39.6	141.983	16967.8609777008									3		1														
		"n"	"JAPAN"	"IWATE"	"SHIRAHAMA (SANRIKUCHO)"	39.05	141.817	16972.765312999294									4.5		1														
		"n"	"JAPAN"	"IWATE"	"SOKEI"	39.633	141.967	16969.74203296755									1.4		1														
		"n"	"JAPAN"	"IWATE"	"SUNAGOHAMA"	39.067	141.85	16970.247260133954									1.9		1														
		"n"	"JAPAN"	"IWATE"	"TACHIHAMA"	39.633	142.033	16964.133285632553									1.5		1														
		"n"	"JAPAN"	"IWATE"	"TAKAHAMA"	39.6	141.967	16969.221138873243									5.1		1														
		"n"	"JAPAN"	"IWATE"	"TAKATA"	39	141.633	16987.604103149326									4.1		1														
		"n"	"JAPAN"	"IWATE"	"TAKONOHAMA"	39.65	141.983	16968.649290412042									1.9		1														
		"n"	"JAPAN"	"IWATE"	"TAMAGAWA"	40.083	141.833	16987.78020473465									8.1		1														
		"n"	"JAPAN"	"IWATE"	"TAMANOWAKI"	40.183	141.817	16990.50765281227									3.6		1														
		"n"	"JAPAN"	"IWATE"	"TANEICHI"	40.4	141.733	17000.443668780743									2.2		1														
		"n"	"JAPAN"	"IWATE"	"TANOHAMA (SANRIKUCHO)"	39.033	141.8	16973.915783292825									2.6		1														
		"n"	"JAPAN"	"IWATE"	"TARO (TAROCHO) "	39.733	141.983	16969.9374835739									3		1														
		"n"	"JAPAN"	"IWATE"	"TOMARI (SANRIKUCHO)"	39.117	141.817	16973.946840700533									3.1		1														
		"n"	"JAPAN"	"IWATE"	"TOMARIKO"	38.95	141.7	16980.97806673974									2.9		1														
		"n"	"JAPAN"	"IWATE"	"TSUGARUISHI"	39.583	141.95	16970.39665912241									5.5		1														
		"n"	"JAPAN"	"IWATE"	"UISO"	39.633	141.033	17049.155854917448									2		1														
		"n"	"JAPAN"	"IWATE"	"URAHAMA"	39.117	141.817	16973.946840700533									3.8		1														
		"n"	"JAPAN"	"IWATE"	"URANOSAWA"	39.633	142	16966.937610185665									2.1		1														
		"n"	"JAPAN"	"IWATE"	"UREISHI"	39.267	141.9	16969.45352653373									2.9		1														
		"n"	"JAPAN"	"IWATE"	"WAKINOSAWA"	39	141.667	16984.696995608272									3		1														
		"n"	"JAPAN"	"IWATE"	"YAGI"	40.35	141.767	16996.93702366241									2.4		1														
		"n"	"JAPAN"	"IWATE"	"YAMADA"	39.467	141.95	16968.528012887138									3.1		1														
		"n"	"JAPAN"	"IWATE"	"YOSHIHAMA"	39.15	141.833	16973.156701370557									3.5		1														
		"n"	"JAPAN"	"KAGAWA"	"TAKAMATSU"	34.35	134.05	17530.628064337838									0.2		2														
		"n"	"JAPAN"	"KAGOSHIMA"	"AKUNE"	32.017	130.2	17773.659647147117									1		1														
		"n"	"JAPAN"	"KAGOSHIMA"	"KAGOSHIMA"	31.583	130.567	17721.929935448192									0.26		2														
		"n"	"JAPAN"	"KAGOSHIMA"	"MAKURAZAKI"	31.267	130.3	17729.618243289002									0.78		2														
		"n"	"JAPAN"	"KAGOSHIMA"	"NAKAKOSHIKI"	31.8	129.85	17793.689662385605									0.83		2														
		"n"	"JAPAN"	"KAGOSHIMA"	"NAZE"	28.383	129.5	17638.192912306673									0.25		2														
		"n"	"JAPAN"	"KAGOSHIMA"	"TANEGASHIMA"	30.733	131	17643.334649258453									1.3		2														
		"n"	"JAPAN"	"KANAGAWA"	"ABURATSUBO"	35.15	139.617	17068.632036015722									0.85		2														
		"n"	"JAPAN"	"KANAGAWA"	"CHOJAGASAKI"	35.25	139.583	17074.68751639555									0.5		1														
		"n"	"JAPAN"	"KANAGAWA"	"ENAWAN"	35.133	139.667	17063.72983864578									0.5		1														
		"n"	"JAPAN"	"KANAGAWA"	"FUKUURA"	35.15	139.133	17110.98427713769									0.6		1														
		"n"	"JAPAN"	"KANAGAWA"	"KAWASAKI"	35.5	139.767	17066.146859467783									0.62		2														
		"n"	"JAPAN"	"KANAGAWA"	"KOYAWATA"	35.267	139.2	17108.71228826925									0.35		1														
		"n"	"JAPAN"	"KANAGAWA"	"KURIHAMA"	35.233	139.717	17062.444874245506									0.9		2														
		"n"	"JAPAN"	"KANAGAWA"	"MANAZURUKO"	35.15	139.15	17109.49651096773									0.45		1														
		"n"	"JAPAN"	"WAKAYAMA"	"MISAKI"	35.133	139.617	17068.10459998384									0.5		1														
		"n"	"JAPAN"	"KANAGAWA"	"NAGASAWA"	35.2	139.683	17064.40352895492									0.6		1														
		"n"	"JAPAN"	"KANAGAWA"	"SUKA"	35.317	139.367	17095.623564979698									0.25		1														
		"n"	"JAPAN"	"KANAGAWA"	"URAGA"	35.25	139.717	17062.96653246275									0.5		1														
		"n"	"JAPAN"	"KANAGAWA"	"YAMANOUCHI"	35.467	139.633	17076.876563910697									0.67		2														
		"n"	"JAPAN"	"KANAGAWA"	"YAWATABASHI"	35.45	139.633	17076.368623922954									0.4		1														
		"n"	"JAPAN"	"KANAGAWA"	"YOKOSUKA"	35.283	139.65	17069.836067044023									0.54		2														
		"n"	"JAPAN"	"KANAGAWA"	"YUIGAHAMA"	35.283	139.567	17077.095652918866									0.65		1														
		"n"	"JAPAN"	"KOCHI"	"FUKURA (SUKUMO)"	32.867	132.733	17590.707661457025									0.5		1														
		"n"	"JAPAN"	"KOCHI"	"HANE"	33.367	134.067	17493.854477511657									1		1														
		"n"	"JAPAN"	"KOCHI"	"MITSU"	33.283	134.183	17480.51006549544									1		1														
		"n"	"JAPAN"	"KOCHI"	"MUKUZU"	32.917	132.667	17598.479169688595									1		1														
		"n"	"JAPAN"	"KOCHI"	"MUROTOMISAKI"	33.267	134.167	17481.296054728333									2.2		1														
		"n"	"JAPAN"	"KOCHI"	"SAKIHAMA"	33.383	134.217	17481.34292692358									2.5		1														
		"n"	"JAPAN"	"KOCHI"	"SHIINA"	33.317	134.2	17480.32236662467									1		1														
		"n"	"JAPAN"	"KOCHI"	"TAKAOKA"	33.267	134.183	17479.89721747304									1		1														
		"n"	"JAPAN"	"KOCHI"	"TANOURA"	32.9	132.717	17593.43631575829									0.3		1														
		"n"	"JAPAN"	"KOCHI"	"TOSA-SHIMIZU"	32.7792	132.9589	17567.457795102095									1.34		2														
		"n"	"JAPAN"	"KOCHI"	"TSURO"	33.25	134.167	17480.643680370045									2.9		1														
		"n"	"JAPAN"	"KOCHI"	"USUSUKI"	32.917	132.667	17598.479169688595									0.5		1														
		"n"	"JAPAN"	"KOCHI"	"KABA"	32.917	132.683	17597.084930937322									0.6		1														
		"n"	"JAPAN"	"KOCHI"	"KANNOURA"	33.533	134.3	17479.711651140067									3.02		1														
		"n"	"JAPAN"	"KOCHI"	"KARYOGO"	33.383	134.033	17497.434473711404									1		1														
		"n"	"JAPAN"	"KOCHI"	"KATASHIMA"	32.917	132.7	17595.60351325923									1.52		1														
		"n"	"JAPAN"	"KOCHI"	"KOBUKAURA"	32.9	132.717	17593.43631575829									0.3		1														
		"n"	"JAPAN"	"KOCHI"	"KOCHI"	33.55	133.55	17545.95403183394									1.55		2														
		"n"	"JAPAN"	"KOCHI"	"KOMAME"	32.783	132.7	17590.164065312165									0.3		1														
		"n"	"JAPAN"	"KOCHI"	"KOZUKUSHI"	32.883	132.717	17592.74934906302									0.5		1														
		"n"	"JAPAN"	"SHIMANE"	"MISUMI"	32.617	130.45	17778.633048525207											2														
		"n"	"JAPAN"	"KUMAMOTO"	"YATSUSHIRO"	32.517	130.567	17764.204771337772									0.13		2														
		"n"	"JAPAN"	"KYOTO"	"MAIZURU"	35.483	135.383	17449.31251149119	22	23	25	28	14				0.31		2	120	"R"												
		"n"	"JAPAN"	"KYOTO"	"MIYAZU"	35.533	135.2	17466.78557799503									0.23		2														
		"n"	"JAPAN"	"MIE"	"GOKASHOURA"	34.35	136.7	17298.351754806994									4		1														
		"n"	"JAPAN"	"MIE"	"HAMASHIMA"	34.3	136.767	17290.789635574154									1		1														
		"n"	"JAPAN"	"MIE"	"HASAMAURA"	34.317	136.667	17300.131081193358									2		1														
		"n"	"JAPAN"	"MIE"	"HIKIMOTO"	34.1	136.233	17330.746114734386									2		1														
		"n"	"JAPAN"	"MIE"	"IMAURA"	34.433	136.883	17285.091823015842									2		1														
		"n"	"JAPAN"	"MIE"	"ISEJIKAWAKAKO"	34.333	136.667	17300.67149282826									0.5		1														
		"n"	"JAPAN"	"MIE"	"ISHIGA"	34.45	136.917	17282.677943635892									0.75		1														
		"n"	"JAPAN"	"MIE"	"KAMISAKI"	34.267	136.5	17313.07529243063									1		1														
		"n"	"JAPAN"	"MIE"	"KUZAKI"	34.417	136.933	17280.17462651664									1.2		1														
		"n"	"JAPAN"	"MIE"	"MASAKI"	34.283	136.817	17285.830144332995									2		1														
		"n"	"JAPAN"	"MIE"	"MATOYA"	34.367	136.867	17284.28432275317									1.5		1														
		"n"	"JAPAN"	"MIE"	"MATSUZAKAKO"	34.617	136.567	17318.862267116183											2														
		"n"	"JAPAN"	"MIE"	"NAGASHIMA (KINNAGASHIMACHO)"	34.2	136.333	17325.427362974755									1.85		1														
		"n"	"JAPAN"	"MIE"	"NISHIKI"	34.217	136.4	17320.13620763391									1.65		1														
		"n"	"JAPAN"	"MIE"	"OUSATSU"	34.383	136.917	17280.43862965155									1.5		1														
		"n"	"JAPAN"	"MIE"	"OWASE"	34.083	136.2	17333.048735296867									2.46		2														
		"n"	"JAPAN"	"MIE"	"SHIMAKATSU"	34.117	136.3	17325.462010102223									2		1														
		"n"	"JAPAN"	"MIE"	"SHINMEI"	34.3	136.833	17285.003971136804									1		1														
		"n"	"JAPAN"	"MIE"	"SHIROURA"	34.117	136.283	17326.952151289926									2		1														
		"n"	"JAPAN"	"MIE"	"TOBA"	34.483	136.817	17292.540269792116									0.89		2														
		"n"	"JAPAN"	"MIE"	"WAGU"	34.267	136.817	17285.286615034274									2		1														
		"n"	"JAPAN"	"MIE"	"YAGUCHI"	34.117	136.267	17328.35463400363									2		1														
		"n"	"JAPAN"	"MIE"	"YOKKAICHIKO"	34.95	136.633	17323.72156851336											2														
		"n"	"JAPAN"	"MIYAGI"	"ARAHAMA"	38.05	140.917	17030.729263491867									1.7		1														
		"n"	"JAPAN"	"MIYAGI"	"ARAHAMA (SENDAI CITY)"	38.217	140.983	17028.47729887979									0.45		2														
		"n"	"JAPAN"	"MIYAGI"	"ARAYASHIKI"	38.533	141.533	16987.469502112184									2.3		1														
		"n"	"JAPAN"	"MIYAGI"	"AYUKAWA"	38.3	141.5	16985.673222803485									0.31		2														
		"n"	"JAPAN"	"MIYAGI"	"AYUKAWA"	38.3	141.5	16985.673222803485									3.1		1														
		"n"	"JAPAN"	"MIYAGI"	"ENOSHIMA"	38.4	141.6	16979.09150252821									1.34		2														
		"n"	"JAPAN"	"MIYAGI"	"FUKUCHI"	38.533	141.383	17000.346943988512									0.41		2														
		"n"	"JAPAN"	"MIYAGI"	"FUNATO"	38.517	141.467	16992.82417947598									4.4		1														
		"n"	"JAPAN"	"MIYAGI"	"GAMO-KAIGAN"	38.25	141.017	17026.217661393897									2.3		1														
		"n"	"JAPAN"	"MIYAGI"	"HADENYA"	38.65	141.483	16994.009475503324									3.8		1														
		"n"	"JAPAN"	"MIYAGI"	"HANABUCHI (SHICHIRIGAHAMA)"	38.3	141.083	17021.542899807257									2.6		1														
		"n"	"JAPAN"	"MIYAGI"	"ISATOMAE"	38.717	141.533	16990.98790979435									3.1		1														
		"n"	"JAPAN"	"MIYAGI"	"ISHINOMAKI (ISHINOMAKI CITY)"	38.417	141.317	17003.748133209338									2.7		1														
		"n"	"JAPAN"	"MIYAGI"	"IZUSHIMA-TERAMA"	38.433	141.533	16985.50501037324									3.4		1														
		"n"	"JAPAN"	"MIYAGI"	"JOKAWA"	38.4	141.283	17006.334318281104									0.6		2														
		"n"	"JAPAN"	"MIYAGI"	"KADOWAKI"	38.417	141.317	17003.748133209338									1.77		2														
		"n"	"JAPAN"	"MIYAGI"	"KADOWAKI (ISHINOMAKI)"	38.417	141.3	17005.209126786427									2.2		1														
		"n"	"JAPAN"	"MIYAGI"	"KESENNUMA"	38.9	141.583	16990.083886755212									2.7		1														
		"n"	"JAPAN"	"MIYAGI"	"KESENNUMAHASHIKAMI"	38.833	141.6	16987.404444813023											2														
		"n"	"JAPAN"	"MIYAGI"	"KESENNUMAKOKOGOSHIO"	38.883	141.6	16988.31986614483											2														
		"n"	"JAPAN"	"MIYAGI"	"KOGOSHIO"	38.9	141.6	16988.629003858918									2.2		1														
		"n"	"JAPAN"	"MIYAGI"	"KOSABA"	38.883	141.65	16984.04034358192									2.8		1														
		"n"	"JAPAN"	"MIYAGI"	"KOZUMI"	38.367	141.467	16989.861377418514									4.5		1														
		"n"	"JAPAN"	"MIYAGI"	"MIYAGASAKI"	38.45	141.45	16992.971422983344									5.5		1														
		"n"	"JAPAN"	"MIYAGI"	"MOMONOURA"	38.4	141.433	16993.442219592052									5.1		1														
		"n"	"JAPAN"	"MIYAGI"	"MYOJIN"	38.517	141.483	16991.450439184522									4		1														
		"n"	"JAPAN"	"MIYAGI"	"NABURI"	38.533	141.5	16990.302358032983									2.7		1														
		"n"	"JAPAN"	"MIYAGI"	"NOBIRU"	38.383	141.167	17015.970040513726											2														
		"n"	"JAPAN"	"MIYAGI"	"NONOHAMA"	38.383	141.467	16990.181357371686									2.7		1														
		"n"	"JAPAN"	"MIYAGI"	"OGINOHAMA"	38.367	141.45	16991.32268812969									3.9		1														
		"n"	"JAPAN"	"MIYAGI"	"OHAMA"	38.517	141.517	16988.531320951595									2.3		1														
		"n"	"JAPAN"	"MIYAGI"	"OHARAHAMA"	38.333	141.483	16987.8026143114									3.2		1														
		"n"	"JAPAN"	"MIYAGI"	"OKACHI"	38.517	141.467	16992.82417947598									4		1														
		"n"	"JAPAN"	"MIYAGI"	"OKUBO"	38.667	141.45	16997.16185664843									4		1														
		"n"	"JAPAN"	"MIYAGI"	"OMURO"	38.583	141.5	16991.26968523645									3.5		1														
		"n"	"JAPAN"	"MIYAGI"	"ONAGAWA"	38.433	141.45	16992.63579725502									2.52		2														
		"n"	"JAPAN"	"MIYAGI"	"ONAGAWA (ONAGAWACHO)"	38.45	141.45	16992.971422983344									4.3		1														
		"n"	"JAPAN"	"MIYAGI"	"ONMAE"	38.467	141.483	16990.471516175545									2.3		1														
		"n"	"JAPAN"	"MIYAGI"	"OOYA"	38.817	141.583	16988.565451198447									2.9		1														
		"n"	"JAPAN"	"MIYAGI"	"OOYAGAWA"	38.367	141.483	16988.48605098308									5.4		1														
		"n"	"JAPAN"	"MIYAGI"	"ORITATE"	38.65	141.45	16996.83985874879									4.5		1														
		"n"	"JAPAN"	"MIYAGI"	"OSAKI"	38.867	141.6	16988.027936744304									2.3		1														
		"n"	"JAPAN"	"MIYAGI"	"OSAWA"	38.95	141.633	16986.70912246603									5		1														
		"n"	"JAPAN"	"MIYAGI"	"OURA"	38.45	141.5	16988.67625232006									3		1														
		"n"	"JAPAN"	"MIYAGI"	"OZASHI"	38.6	141.533	16988.76511686319									2.8		1														
		"n"	"JAPAN"	"MIYAGI"	"SHIBITACHI"	38.883	141.65	16984.04034358192									2.6		1														
		"n"	"JAPAN"	"MIYAGI"	"SHIOGAMA"	38.3	141.033	17025.844908514577									1.78		2														
		"n"	"JAPAN"	"MIYAGI"	"SHIOGAMA (SHIOGAMASHI)"	38.317	141.05	17024.72177407641									2.5		1														
		"n"	"JAPAN"	"MIYAGI"	"SHIZUKAWA"	38.667	141.45	16997.16185664843									4.4		1														
		"n"	"JAPAN"	"MIYAGI"	"SHUKU"	38.9	141.65	16984.350092958946									2.7		1														
		"n"	"JAPAN"	"MIYAGI"	"TADAKOE"	38.933	141.633	16986.402722524574									3.6		1														
		"n"	"JAPAN"	"MIYAGI"	"TSUKIHAMA"	38.567	141.45	16995.2523970602											1														
		"n"	"JAPAN"	"MIYAGI"	"TSUKIHAMA"	38.567	141.45	16995.2523970602									2.4		1														
		"n"	"JAPAN"	"MIYAGI"	"TSUMOTO"	38.867	141.667	16982.292660729796									1.9		1														
		"n"	"JAPAN"	"MIYAGI"	"WATANOHA"	38.417	141.367	16999.451250005102									2.4		2														
		"n"	"JAPAN"	"MIYAGI"	"WATANOHA (ISHINOMAKI CITY)"	38.417	141.367	16999.451250005102											1														
		"n"	"JAPAN"	"MIYAGI"	"YORIISO"	38.383	141.533	16984.50897970652									2.8		1														
		"n"	"JAPAN"	"MIYAGI"	"YURIAGE"	38.167	140.967	17028.837068850582									2.4		1														
		"n"	"JAPAN"	"MIYAZAKI"	"ABURATSU"	31.583	131.417	17648.841438962714									1.01		2														
		"n"	"JAPAN"	"MIYAZAKI"	"AKAE"	31.883	131.467	17658.329626499395									1		1														
		"n"	"JAPAN"	"MIYAZAKI"	"FUKUSHIMA"	31.483	131.2	17662.82072762462									0.75		2														
		"n"	"JAPAN"	"MIYAZAKI"	"HOSOSHIMA"	32.433	131.667	17665.29219960989									0.94		2														
		"n"	"JAPAN"	"MIYAZAKI"	"HOUZAIJIMA"	32.583	131.717	17667.33681733756									1.5		1														
		"n"	"JAPAN"	"MIYAZAKI"	"KIBANAKAIGAN"	31.833	131.45	17657.52373710328									3.14		1														
		"n"	"JAPAN"	"MIYAZAKI"	"MIYAZAKIKO"	31.9	131.45	17660.5679312674									0.31		2														
		"n"	"JAPAN"	"MIYAZAKI"	"ORIUZAKO"	31.8	131.467	17654.550727705067									1.5		1														
		"n"	"JAPAN"	"MIYAZAKI"	"SHIMAURA"	32.667	131.817	17662.18026102549									1		1														
		"n"	"JAPAN"	"MIYAZAKI"	"SOSANJI-KAIGAN"	31.817	131.45	17656.793983151638									1.5		1														
		"n"	"JAPAN"	"MIYAZAKI"	"SUMIE"	32.65	131.767	17665.812577493885									2		1														
		"n"	"JAPAN"	"MIYAZAKI"	"TONDAKO"	32.05	131.5	17662.992335285904									0.5		1														
		"n"	"JAPAN"	"MIYAZAKI"	"TONOURA (MIYAZAKI)"	31.517	131.383	17648.68036909823									2.5		1														
		"n"	"JAPAN"	"MIYAZAKI"	"TOTOROKO"	32.5	131.683	17666.768097852848									1.5		1														
		"n"	"JAPAN"	"MIYAZAKI"	"TOUMI"	32.6	131.717	17668.053888587063									0.44		2														
		"n"	"JAPAN"	"MIYAZAKI"	"UCHIUMIKO"	31.75	131.483	17650.88043149819									1.5		1														
		"n"	"JAPAN"	"NAGASAKI"	"FUKAHORI"	32.683	129.817	17836.23175342305									0.48		2														
		"n"	"JAPAN"	"NAGASAKI"	"MEKAMI"	32.7	129.85	17834.107215322838									0.8		1														
		"n"	"JAPAN"	"NAGASAKI"	"OHATO"	32.75	129.867	17834.772689864985									1		2														
		"n"	"JAPAN"	"NAGASAKI"	"SASEBO"	33.15	129.717	17864.450056876718	22	21	40	26	29				0.63		2	53	"R"												
		"n"	"JAPAN"	"NAGASAKI"	"TOMIE"	32.617	128.767	17923.981069661295									0.83		2														
		"n"	"JAPAN"	"OITA"	"NAKATSU"	33.583	131.25	17748.09903669767									0.2		2														
		"n"	"JAPAN"	"OITA"	"SAEKI"	32.967	131.917	17665.819817959524									1		1														
		"n"	"JAPAN"	"OITA"	"TSURUZAKI"	33.25	131.683	17697.48384711426									0.67		2														
		"n"	"JAPAN"	"OKAYAMA"	"UNO"	34.483	133.95	17543.849738213983									0.11		2														
		"n"	"JAPAN"	"OKINAWA"	"FUTAMI-SUGINDA"	26.55	128.033	17636.921545702124									3.2		1														
		"n"	"JAPAN"	"OKINAWA"	"FUTAMI-SUKU"	26.55	128.033	17636.921545702124									2.9		1														
		"n"	"JAPAN"	"OKINAWA"	"HIRARA"	24.8	125.283	17714.597715981177									1.48		2														
		"n"	"JAPAN"	"OKINAWA"	"ISHIGAKIKO"	24.333	124.167	17755.717717679116									1.36		1														
		"n"	"JAPAN"	"OKINAWA"	"ISHIKAWA"	26.433	127.833	17644.420984537566									2.8		1														
		"n"	"JAPAN"	"OKINAWA"	"MAKIYA"	26.633	128.05	17641.28953594931									2.26		1														
		"n"	"JAPAN"	"OKINAWA"	"OURA"	26.55	128.05	17635.593331207176									3		1														
		"n"	"JAPAN"	"OSAKA"	"OSAKA"	34.667	135.433	17419.893360309816									0.5		2														
		"n"	"JAPAN"	"OSAKA"	"TANNOWA"	34.333	135.183	17430.75657759513									0.2		2														
		"n"	"JAPAN"	"SAGA"	"KARATSUKO"	33.467	129.967	17855.39746449803									0.2		2														
		"n"	"JAPAN"	"SHIMANE"	"SAIGO"	36.2	133.333	17648.35701411481									0.07		2														
		"n"	"JAPAN"	"SHIMANE"	"TONOURA"	34.9	132.067	17722.37390820202									0.14		2														
		"n"	"JAPAN"	"SHIZUOKA"	"AJIRO"	35.05	139.083	17112.252889366224									1		1														
		"n"	"JAPAN"	"SHIZUOKA"	"ARAICHO"	34.683	137.567	17233.3618899166									0.7		1														
		"n"	"JAPAN"	"SHIZUOKA"	"HAMAOKA-KAIGAN"	34.617	138.133	17181.611739671636									0.75		1														
		"n"	"JAPAN"	"SHIZUOKA"	"HOSOYA"	34.667	137.467	17241.60631047703									0.8		1														
		"n"	"JAPAN"	"SHIZUOKA"	"ITO"	34.9	139.133	17103.14516045694									0.7		2														
		"n"	"JAPAN"	"SHIZUOKA"	"ITO (ITOSHI)"	34.967	139.1	17108.157623412837									1		1														
		"n"	"JAPAN"	"SHIZUOKA"	"JITOUGATA"	34.633	138.2	17176.263995175224									1		1														
		"n"	"JAPAN"	"SHIZUOKA"	"KAWATSUHAMA"	34.733	139	17109.430738676772									1.15		1														
		"n"	"JAPAN"	"SHIZUOKA"	"MAISAKA"	34.683	137.617	17228.980136975762									0.4		2														
		"n"	"JAPAN"	"SHIZUOKA"	"OHAMA-KAIGAN"	34.65	138.067	17188.473158944522									0.5		1														
		"n"	"JAPAN"	"SHIZUOKA"	"OMAEZAKI"	34.6083	138.2222	17173.510386425864									1.9		2														
		"n"	"JAPAN"	"SHIZUOKA"	"SHIMIZU"	35.017	138.517	17160.77525536387									1.09		2														
		"n"	"JAPAN"	"SHIZUOKA"	"SHIMODA"	34.667	138.95	17111.66423116371									1.14		1														
		"n"	"JAPAN"	"SHIZUOKA"	"SHINBENTEN"	34.683	137.583	17231.959723084936									0.41		2														
		"n"	"JAPAN"	"SHIZUOKA"	"TAGONOURA"	35.133	138.7	17148.358547779022									1		1														
		"n"	"JAPAN"	"SHIZUOKA"	"UCHIURA"	35.017	138.883	17128.72883522192									1.07		2														
		"n"	"JAPAN"	"SHIZUOKA"	"YAIZU"	34.867	138.333	17172.157644499694									0.51		2														
